id,name,hotelname_en,featurehoteltype,lat,lon,price,numbed
0,北京天安门王府井漫心酒店,Beijing Tiananmenwangfujing Manxin Hotel,机器人服务,39.915718,116.408128,689,1
1,北京京都信苑饭店,Beijing Xinyuan Hotel,泳池,39.898089,116.31215,637,2
2,北京北投台湖演艺酒店,Beijing Beitou Taihu Performing Arts Hotel,免费停车,39.830898,116.62203,740,2
3,桔子水晶北京王府井大街酒店,Crystal Orange Beijing Wangfujing Street Hotel,机器人服务,39.91525,116.410422,679,1
4,赛特饭店,Scitech Hotel,泳池,39.906667,116.441675,678,1
5,嘉年华酒店(北京亦庄经济开发区店),Carnival Hotel (Beijing Yizhuang Economic Development Zone),亲子主题房,39.807812,116.52796,335,1
6,北京大兴国际机场木棉花酒店,Mumian Beijing Daxing International Airport,泳池,39.516491,116.415634,729,1
7,北京龙熙维景国际会议中心,Grand Metropark Longxi Conference Center Beijing,温泉,39.624784,116.302285,639,2
8,北京三元桥CitiGO欢阁酒店,CitiGO Hotel Sanyuanqiao Beijing,机器人服务,39.961257,116.454867,595,1
9,桔子水晶北京国贸合生汇酒店,Crystal Orange Beijing Internatio管家服务nal Trade Heshenghui Hotel,机器人服务,39.894652,116.47704,523,1
10,北京德胜门华宇假日酒店,Holiday Inn Beijing Deshengmen,健身室,39.957588,116.378635,718,2
11,北京中航泊悦酒店,Boyue Beijing Hotel,桑拿,39.95719,116.463577,688,1
12,北京三元桥亚朵X酒店,Beijing Sanyuanqiao Atour X Hotel,免费停车,39.953753,116.451347,728,1
13,北京天坛漫心酒店,Beijing Tiantan Manxin Hotel,免费停车,39.876257,116.421599,628,1
14,北京广安门维景国际大酒店,Guanganmen Grand Metropark Hotel Beijing,免费停车,39.888884,116.354755,730,2
15,秋果酒店智选(北京朝阳高铁站东坝中路店),Qiuguo Hotel Smart Choice (Beijing Chaoyang High-speed Railway Station Dongba Middle Road),家庭房,39.949285,116.55619,379,1
16,秋果酒店(北京复兴门中央音乐学院店),TRUE GO HOTEL Fuxingmen Central Conservatory of Music Store,免费停车,39.898434,116.347467,529,1
17,北京亦庄智选假日酒店,Holiday Inn Express (Beijing Yizhuang),免费停车,39.788721,116.513926,617,2
18,桔子水晶北京南站木樨园酒店,Crystal  Orange Beijing South Railway Station Muxiyuan Hotel,免费停车,39.855894,116.406984,517,1
19,北京三里屯国安亚朵S酒店,Beijing Sanlitun Guo'an Atour S Hotel,免费停车,39.922442,116.453113,702,1
20,朗丽兹酒店(稻香湖路地铁站中关村环保园店),Lang Liz Hotel (Daoxianghu Road Subway Station Zhongguancun Environmental Protection Park),停车场,40.06545,116.179739,522,2
21,桔子水晶北京安贞酒店,Crystal Orange Beijing Anzhen Hotel,免费停车,39.968572,116.412118,643,1
22,秋果S酒店·1924(北京五棵松解放军301总医院店),Qiuguo S Hotel·1924 (Beijing Wukesong PLA 301 General Hospital),免费停车,39.905825,116.270873,499,1
23,北京朝阳路大悦城亚朵酒店,"Atour Hotel (Joy City, Chaoyang Road, Beijing)",免费停车,39.919076,116.513535,658,1
24,秋果酒店(北京学清路农业大学店),TRUE GO Hotel (Beijing Xueqing Road Agricultural University Branch),管家服务,40.010721,116.351104,528,1
25,北京西站南广场亚朵酒店,Atour Hotel (Beijing West Railway Station South Square),免费停车,39.891613,116.322925,666,1
26,桔子水晶北京天坛酒店,Crystal  Orange Beijing Temple of Heaven Hotel,管家服务,39.863727,116.413599,563,1
27,北京新侨饭店,Beijing Xinqiao Hotel,机器人服务,39.901688,116.416884,580,2
28,秋果酒店(北京三里屯工体店),Qiuguo Hotel (Beijing Sanlitun Gongti Branch),机器人服务,39.930665,116.456526,499,1
29,北京丰大国际大酒店,Fengda International Hotel,泳池,39.795921,116.508729,568,1
30,北京朝阳北路长楹天街亚朵酒店,"Atour Hotel, Changyingtian Street, Chaoyang North Road, Beijing",免费停车,39.921525,116.590835,605,1
31,宝欐酒店(北京协和医院东单院区店),Bolly Wood Hotel,管家服务,39.916376,116.417544,682,2
32,北京亦庄新城马驹桥亚朵酒店,"Atour Hotel (Majuqiao, Yizhuang Xincheng)",免费停车,39.733535,116.545619,544,1
33,北京天安门广场CitiGO欢阁酒店,CitiGO Hotel Beijing Tian'anmen Square,拍照出片,39.892335,116.398476,581,1
34,北京花乡天坛医院亚朵酒店,Atour Hotel Beiijng Huaxiang New Temple of Heaven,免费停车,39.835921,116.320016,544,2
35,北京燕莎三元桥亚朵酒店,Atour Hotel (Beijing Yansha Sanyuanqiao),洗衣房,39.95433,116.461666,693,1
36,北京总部基地亚朵酒店,Artour Hotel,机器人服务,39.826003,116.287827,614,1
37,桔子水晶北京丽泽商务区天坛医院酒店,Crystal Orange Beijing Lize Business District Tiantan Hospital Hotel,免费停车,39.842202,116.327483,542,1
38,北京银保建国酒店,Yinbao Jianguo Hotel,泳池,39.943367,116.184595,590,2
39,北京后海鼓楼四合院漫心府,Beijing Houhai Gulou courtyard MANXIN Hotel,智能客控,39.947828,116.392893,815,1
40,北京临空皇冠假日酒店,Crowne Plaza Beijing International Airport,泳池,40.063836,116.556456,557,2
41,北京福庭酒店,Livefortuna Hotel,免费停车,39.916277,116.438176,655,2
42,北京南站右安门桥亚朵酒店,Atour Hotel Youanmenqiao Beijing South Railway Station,家庭房,39.869178,116.367299,702,1
43,北京东方茂酒店(簋街北新桥地铁站店),Beijing Oriental Mao Hotel (Gujie Beixinqiao Subway Station),管家服务,39.941345,116.411923,727,1
44,秋果酒店(北京望京科技园店),True Go Hotel (Beijing Wangjing Science Park store),免费停车,40.008296,116.477856,679,1
45,北京北辰汇园酒店公寓(贵宾楼),North Star Huiyuan Apartment Hotel (VIP building),酒店公寓,39.992771,116.406112,590,1
46,北京CBD国贸桥亚朵X酒店,Beijing CBD Guomao Bridge Yaduo X Hotel,免费停车,39.905022,116.466549,702,1
47,建国铂萃酒店(北京环球度假区店),Jianguo baicui Hotel (Beijing Universal resort),免费停车,39.864021,116.666418,483,1
48,THE HUMBLE 厚居酒店(北京国家会议中心鸟巢店),The Humble Hotel,免费停车,39.999064,116.411535,514,2
49,北京国贸CBD亚朵S酒店xFunsCenter,Beijing International Trade CBD Yaduo s Hotel xfunscenter,机器人服务,39.915287,116.478263,588,2
50,北京安贞地坛亚朵酒店,Atour Hotel Beijing Anzhenditan,管家服务,39.964259,116.40721,702,1
51,北京朝阳公园亚朵酒店,Atour Hotel (Beijing Chaoyang Park),免费停车,39.921441,116.494674,746,1
52,北京长白山国际酒店,Changbaishan International Hotel,茶室,39.984832,116.410305,503,2
53,秋果酒店(北京西单金融街店),Qiuguo Hotel (Beijing Xidan Financial Street Fuwai Hospital),机器人服务,39.926261,116.37292,549,1
54,北京东方安颐国际酒店,Orient-Anyi international Hotel,桑拿,39.809789,116.095907,751,2
55,北京朝阳门亚朵酒店,Atour Hotel,免费停车,39.915889,116.436186,865,1
56,北京宝欐酒店(国贸SKP店),Beijing BoLLy Wood  Hotel (Guomao SKP Store),SPA,39.912758,116.477598,588,1
57,北京中关村理工大学漫心酒店,"Manxin Hotel, Beijing Zhongguancun University of Technology",洗衣房,39.95675,116.316845,643,1
58,北京和平里对外经贸大学亚朵酒店,Atour Hotel  Hepingli&University of International Business Beijing,免费停车,39.978811,116.424332,808,2
59,桔子水晶北京国贸建国门酒店,Crystal Orange Hotel (Beijing International Trade Jianguomen),免费停车,39.905472,116.448027,637,2
60,隐卓酒店(团结湖店),Enjoy Hotel,免费停车,39.932867,116.462316,518,1
61,北京天安门王府井美仑酒店,Madison Hotel Wangfujing Tiananmen Beijing,多功能厅,39.91138,116.408976,741,2
62,原拓酒店(北京环球度假区店),Yuantuo Hotel (Beijing Global Resort),免费停车,39.883874,116.666369,459,1
63,秋果酒店·景星(北京协和医院王府井店),Qiuguo Hotel Jingxing (Beijing Union Hospital Wangfujing Branch),机器人服务,39.916364,116.430557,497,2
64,北京中关村美居酒店,Mercure Hotel,机器人服务,39.946814,116.323134,689,1
65,北京天安门王府井合院漫心府,Beijing Tiananmen Wangfujing courtyard Manxin Hotel,管家服务,39.916838,116.415008,793,1
66,秋果酒店(北京望京SOHO店),Qiu Guo Hotel (Beijing Wangjing SOHO),免费停车,39.985759,116.47522,569,1
67,北京亚运村国家会议中心亚朵酒店,Atour Hotel Yayuncun National Conference Center,免费停车,39.996743,116.418651,702,1
68,北京安贞奥体中心美居酒店,Mercure Beijing Anzhen Olympic Center,免费停车,39.971976,116.408013,635,2
69,北京国贸潘家园亚朵酒店,Beijing Guomao Panjiayuan Yaduo Hotel,机器人服务,39.876434,116.464919,588,1
70,秋果酒店(北京三元桥燕莎店),Qiu Guo Hotel (Beijing Sanyuanqiao Yansha),免费停车,39.958167,116.462072,530,1
71,北京首都宾馆,Capital Hotel,多功能厅,39.901789,116.409261,758,2
72,北京太阳花酒店(北京环球影城度假区店),Beijing Sunflower Hotel (Beijing Universal Studios Resort),免费停车,39.889146,116.653591,598,2
73,北京大方瑞廷西郊酒店,Grand Kingtown Hotel Beijing,机器人服务,39.892895,116.32466,563,1
74,和颐至尚酒店(北京国贸建国门店),Yitel Hotel,智能客控,39.907027,116.444095,520,1
75,北京通州环球度假区美居酒店,Mercure Beijing Tongzhou Global Resort,免费停车,39.875104,116.662328,626,1
76,北京豪庭国际酒店(朝阳大悦城青年路地铁站店),Beijing Grand Court International Hotel (Chaoyang Dayue City Qingnian Road subway station),免费停车,39.924788,116.521221,557,1
77,北京中关村苏州街漫心酒店,Beijing Zhongguancun Suzhou Street Manxin Hotel,免费停车,39.96483,116.308812,655,1
78,桔子水晶北京朝阳公园酒店,Crystal Orange Beijing Chaoyang Park Hotel,机器人服务,39.923541,116.494124,514,1
79,桔子水晶北京酒仙桥酒店,Crystal Orange Beijing JiuXianQiao Hotel,免费停车,39.975931,116.489265,585,1
80,北京石景山游乐园希尔顿欢朋酒店,Hampton by Hilton Beijing Shijingshan Amusemen Park,免费停车,39.920374,116.206177,535,1
81,北京右安门西铁营地铁站亚朵酒店,Beijing You 'anmen West Railway Camp Station Atour Hotel,机器人服务,39.85809,116.354324,702,1
82,秋果酒店(北京五棵松301解放军总医院店),Qiuguo Hotel (Beijing Wukesong 301 PLA General Hospital),免费停车,39.905771,116.271441,499,2
83,北京临空新国展亚朵酒店,Atour Hotel (Beijing Linkong New National Exhibition Center),免费停车,40.107267,116.558807,526,1
84,北京西站六里桥亚朵酒店,"Atour Hotel, Liuliqiao, Beijing West Railway Station",机器人服务,39.8826,116.312233,596,1
85,北京天坛东门亚朵酒店,Yaduo Hotel  east gate of Tiantan Beijing,免费停车,39.887117,116.426159,658,1
86,北京首都机场新国展亚朵酒店,Atour Hotel Beijing Capital Airport New National Exhibition,智能客控,40.060581,116.574869,570,1
87,北京大兴国际机场亚朵S酒店,Atour S Hotel Beijing Daxing International Airport,免费停车,39.525811,116.411649,561,2
88,北京建国门漫心酒店,Beijing Jianguomen Manxin Hotel,洗衣房,39.9164,116.436376,594,1
89,桔子水晶北京朝阳门酒店,Crystal Orange Hotel Beijing Chaoyangmen,机器人服务,39.918166,116.443409,569,1
90,北京上地智选假日酒店,Holiday Inn Express Shangdi Beijing,免费停车,40.03672,116.314615,613,1
91,北京北七家温都水城漫心酒店,Beijing Beiqijia Wendu Shuicheng Manxin Hotel,免费停车,40.098793,116.366714,466,1
92,京玺酒店(北京国贸劲松店),RIGHT HOTEL  BEIJING GUOMAO JINSONG,影音房,39.880396,116.455755,549,1
93,城市有爱酒店(北京南站西铁营地铁站店),City Love Hotel (Beijing South Railway Station Capital Medical University Hotel),免费停车,39.858424,116.35609,529,1
94,北京奥体中心鸟巢亚朵酒店,Atour Hotel (Beijing Olympic Sports Center),机器人服务,39.985751,116.412403,725,1
95,北京望京798亚朵X酒店,"Yaduo X Hotel 798 Wangjing, Beijing",智能客控,39.976856,116.489383,599,1
96,时光赞歌花园酒店(北京大兴旺兴湖公园店),A Memory Hotel (Beijing Daxing District Wangxinghu Park),充电桩,39.814119,116.432015,536,1
97,北京南锣鼓巷亚朵酒店,Atour Hotel (Beijing South Luogu Lane),免费停车,39.931337,116.411391,728,1
98,北京饭店,Beijing Hotel,设计师酒店,39.909061,116.410145,856,2
99,桔子水晶北京西站南广场酒店,Crystal Orange  Beijing West Railway Station South Plaza Hotel,免费停车,39.888495,116.317466,595,1
100,北京西直门漫心酒店,Beijing Xizhimen Manxin Hotel,机器人服务,39.950841,116.358914,652,1
101,桔子水晶北京南站酒店,Crystal Orange Hotel(South of Beijing Railway Station ),机器人服务,39.877749,116.360549,606,1
102,秋果酒店(北京建国门首都儿研所店),Qiuguo Hotel (Beijing Jianguomen Capital Children's Research Institute),免费停车,39.916734,116.437504,506,1
103,北京友谊宾馆,Friendship Hotel,会议厅,39.964085,116.321102,688,2
104,花筑奢·北京怀柔兰亭温泉度假酒店(慕田峪长城店),Floral Lux Hotel·Lanting Hot Spring Resort(Mutianyu Great Wall shops),免费停车,40.416326,116.543574,621,1
105,秋果S1918庭院式酒店(北京天安门店),TEUE GO S1918 Courtyard style Hotel((Beijing Tananmen),免费停车,39.883818,116.395022,549,2
106,桔子水晶北京丽泽商务区中心酒店,Crystal Orange  Beijing Lize Business District Central Hotel,免费停车,39.874498,116.326943,585,2
107,北京天安门逸扉酒店,UrCove by HYATT Beijing Forbidden City,管家服务,39.910304,116.407109,610,1
108,北京顺义希尔顿惠庭酒店,HOME2 SUITES BY HILTON BEIJING SHUNYI,免费停车,40.126137,116.647518,506,1
109,北京三里屯太古里CitiGO欢阁酒店,"CitiGO Hotel, Sanlitun, Beijing",机器人服务,39.937609,116.451027,559,1
110,秋果酒店(北京东直门雍和宫簋街店),"Qiuguo Hotel (Beijing Yonghe Palace,Dongzhimen)",免费停车,39.947866,116.424865,549,1
111,麗枫酒店(北京亚运村鸟巢国家会议中心店),"Lavande Hotel (Beijing Asian Sports Village,National Stadium,National Coference Center)",免费停车,39.99439,116.41779,507,1
112,北京南站大观园漫心酒店,Beijing South Railway Station Grand View Garden Manxin Hotel,免费停车,39.873476,116.353708,560,1
113,花韵丁香酒店(北京南站牛街店),Huayun Dingxiang Hotel (Beijing South Station Niujie Branch),管家服务,39.883767,116.371875,648,1
114,北京长富宫饭店,Hotel New Otani Chang Fu Gong,桑拿,39.907484,116.437917,758,1
115,北京首都机场亚朵酒店,Atour Hotel (Beijing Capital Airport),免费停车,40.045704,116.640637,596,1
116,云郦酒店(北京南锣鼓巷簋街店),Yunli Hotel,四合院,39.94076,116.42088,508,1
117,北京国贸劲松地铁站亚朵酒店,Atour Hotel Beiijng Guomao Jinsong Subway Station,免费停车,39.881257,116.45574,658,1
118,北京黄花城水长城漫心府,Beijing Huanghuacheng Water Great Wall Manxin Mansion,泳池,40.409588,116.324866,525,1
119,桔子水晶北京国贸商务区四惠酒店,Crystal Orange Beijing International Trade Business District Sihui Hotel,免费停车,39.909109,116.520382,484,2
120,北京天伦松鹤大饭店,Sunworld Hotel,桑拿,39.918109,116.413292,662,2
121,北京西直门展览馆轻居酒店,Beijing Xizhimen Exhibition Gallery Light Residence Hotel,机器人服务,39.933949,116.345834,570,1
122,北京丽都维景酒店,"Metropark Lido Hotel, Beijing",泳池,39.977851,116.479214,638,2
123,花筑·北京长城玖号院民宿,Floral Hotel·Beijing Great Wall No.9 house Homestay,日光浴场,40.432138,116.333461,639,2
124,北京首钢秀池智选假日酒店,Beijing Shijingshan Lakeview Holiday Inn Express,机器人服务,39.917981,116.15205,681,1
125,北京国泰饭店,Gotel Capital,免费停车,39.907031,116.448618,638,1
126,北京望京华彩智选假日酒店,Holiday Inn Express (Beijing Wangjing Huacai),会议厅,40.01083,116.468375,617,1
127,北京中关村五道口漫心酒店,Beijing Zhongguancun Wudaokou Manxin Hotel,管家服务,39.975281,116.345854,687,1
128,北京贵州大厦,Guizhou Mansion,健身室,39.970099,116.418454,666,2
129,北京天坛饭店,Tiantan Hotel,免费停车,39.884636,116.430539,484,1
130,北京首钢工舍智选假日酒店,Holiday Inn Express (Beijing Shijingshan Parkview),免费停车,39.922595,116.155557,570,1
131,北京西西友谊酒店,Xixi Youyi Hotel,免费停车,39.914351,116.373104,718,2
132,北京五棵松漫心酒店,Beijing Wukesong MANXIN Hotel,机器人服务,39.920902,116.264949,560,1
133,北京鼓楼亚朵酒店,Beijing Gulou Atour Hotel,免费停车,39.947365,116.401105,684,1
134,北京长峰假日酒店,Holiday Inn Beijing ChangAn West,免费停车,39.908992,116.265188,612,2
135,秋果酒店(北京三元桥使馆区店),True Go HOTEL(Embassy Of Sanyuanqiao),免费停车,39.958145,116.463702,495,2
136,北京西站南路六里桥东亚朵酒店,Beijing West Station South Road Liuliqiao East Yaduo Hotel,家庭房,39.888184,116.320339,596,2
137,朗丽兹酒店(北京首都机场新国展店),PALACE HOTELS(Beijing Capital Airport New International Exhibition Center),免费停车,40.107021,116.557576,588,1
138,北京国展三元桥逸扉酒店,UrCove by HYATT Beijing International Exhibition Center,管家服务,39.965509,116.436644,736,1
139,北京房山希尔顿欢朋酒店,Hampton by Hilton,健身室,39.720824,116.04478,463,1
140,北京亚运村漫心酒店,Beijing Yayuncun Manxin Hotel,免费停车,39.989934,116.414478,652,1
141,北京天坛左安门亚朵酒店,"Atour Hotel Zuo'anmen, Temple of Heaven",自营亲子房,39.883297,116.434703,614,1
142,秋果酒店(北京朝阳门三里屯店),TRUE GO HOTEL,机器人服务,39.922063,116.445648,499,1
143,北京贯通建徽酒店,Guantong Jianhui Hotel,充电桩,39.877243,116.347591,428,2
144,北京西长安美居酒店,Mercure Beijing Changan West,管家服务,39.909826,116.285112,625,1
145,北京望京科技园亚朵酒店,Atour Hotel ( Beijing Wangjing Science Park),免费停车,40.005056,116.474014,676,1
146,北京中乐六星酒店,Zhongle Six Star Hotel,免费停车,39.86156,116.426593,588,1
147,北京金奇树酒店(大兴义和庄地铁站店),Beijing Jinqishu Hotel (Daxing Yihezhuang Metro Station),免费停车,39.711634,116.31682,558,1
148,桔子水晶北京总部基地酒店,Crystal Orange Beijing Headquarters Base Hotel,免费停车,39.823958,116.29068,643,1
149,北京云瑧金陵莲花酒店,Yun-zen Jinling Lotus Hotel,充电桩,39.890512,116.319497,631,1
150,北京雍和宫漫心酒店,Beijing Yonghegong Manxin Hotel,免费停车,39.953834,116.426148,652,1
151,景里酒店(北京新国展首都机场店),Jingli Hotel (Beijing New National Exhibition Capital Airport),免费停车,40.093533,116.54369,459,2
152,桔子水晶北京丰台火车站总部基地酒店,Orange Crystal Beijing Fengtai Railway Station Headquarters Base Hotel,家庭房,39.836785,116.296129,554,1
153,北京雍和宫和平里亚朵X酒店,"Atour X Hotel , Hepingli，Yonghe Palace，Beijing",免费停车,39.96234,116.412684,640,1
154,香柏艺术酒店(北京南锣鼓巷后海店),BaiYee Tree  art  hotel,自营亲子房,39.939639,116.405459,514,2
155,墅苑酒店(北京南站店),Shuyuan Hotel,家庭房,39.854411,116.424243,516,2
156,北京四季御园国际大酒店,Beijing Four Seasons Royal Garden International Hotel,免费停车,39.978909,116.241394,570,1
157,北京亦庄通明湖智选假日酒店,Holiday Inn Express Beijing Tongminghu,免费停车,39.787649,116.577582,548,1
158,金泰海博大酒店(北京海淀五路居地铁站店),Golden Harbor Hotel,免费停车,39.937566,116.274853,596,2
159,桔子水晶北京南站洋桥酒店,Orange Crystal Hotel Beijing South Railway Station Yangqiao,影音房,39.852076,116.386188,548,1
160,北京亦庄荣京西街亚朵酒店,Beijing Yizhuang Rongjingxijie Atour Hotel,免费停车,39.785928,116.502559,614,1
161,蔚徕酒店(北京石景山万达广场八角游乐园地铁站店),Vyluk Hotel (Beijing Shijingshan Wanda Plaza Octagon Amusement Park Subway Station),家庭房,39.903601,116.215251,612,1
162,山水S酒店(北京西站丽泽商务区店),Shanshui S Hotel (Beijing West Railway Station Lize Business District),免费停车,39.879479,116.327455,578,1
163,北京慕田峪长城酒店,Mutianyu Great Wall Hotel,免费停车,40.433015,116.563758,660,2
164,北京红旗渠京隆酒店(北京南站店),Beijing Hongqiqu Jinglong Hotel,免费停车,39.851834,116.386575,478,1
165,希岸Deluxe酒店(北京中关村知春路地铁站店),Xi'an Deluxe Hotel (Beijing Zhongguancun Zhichun Road Subway Station Branch),免费停车,39.979104,116.33813,654,2
166,北京中关村人民大学轻居酒店,Beijing Zhongguancun Renmin University Light Residence,免费停车,39.963616,116.327579,614,1
167,北京海淀花园饭店,Garden Hotel,桑拿,39.977287,116.371504,551,2
168,北京总部基地漫心酒店,Beijing Headquarters Base Manxin Hotel,免费停车,39.825497,116.292276,646,1
169,桔子水晶北京上地中关村软件园酒店,Crystal Orange Beijing Shangdi Zhongguancun Software Park Hotel,免费停车,40.033985,116.31091,603,1
170,北京唯实酒店(唯实国际文化交流中心),Vision Hotel (Vision International Cultural Exchange Center),泳池,39.978882,116.352879,839,2
171,北京和平里旅居酒店,Hepingli Traveler Inn,免费停车,39.957497,116.42587,502,1
172,北京首都机场东海康得思酒店,"Cordis, Beijing Capital Airport",桑拿,40.048803,116.613327,760,1
173,花筑·北京长城山之家壹号院民宿,Floral Hotel·Beijing Great Wall Mountain home One courtyard homestay,日光浴场,40.428949,116.333994,571,1
174,花筑·北京长城山之家私汤贰号院民宿,Floral Hotel·Beijing Great Wall Mountain home private Tang No. 2 home hostel,免费停车,40.428892,116.333979,529,2
175,北京世园凯悦嘉轩酒店,Hyatt Place Beijing Shiyuan,免费停车,40.443139,115.964302,499,1
176,北京伯豪瑞廷酒店,Radegast Hotel Beijing Bohao,泳池,39.914193,116.471424,738,1
177,花筑·桂庭俊舍(北京宽沟店),"Floral hotel·guitingjunshe, Beijing",免费停车,40.339281,116.558115,724,2
178,春天映向空中花园酒店(北京天安门王府井店),Spring Yingxiang Sky Garden Hotel (Beijing Tiananmen Wangfujing Branch),管家服务,39.9186,116.425326,517,1
179,北京民族园葉子里酒店,LeafIN Hotel Beijing Minzuyuan,多功能厅,39.978538,116.391316,599,1
180,北京中关村学院桥地铁站亚朵酒店,Beijing Zhongguancun Xueyuanqiao Subway Station Yaduo Hotel,影音房,39.987147,116.350504,702,2
181,北京亚太花园酒店(环球度假区梨园地铁站店),Beijing Asia Pacific Garden Hotel(Universal Studios  Resort  Liyuan Subway  Station Branch),免费停车,39.886759,116.671074,474,1
182,北京橡树公馆,Oak Chateau Beijing,酒店公寓,39.95785,116.459177,679,2
183,桔子水晶北京首都机场新国展酒店,Orange Crystal Beijing Capital Airport New International Exhibition Center Hotel,家庭房,40.044474,116.525427,508,1
184,北京亮马河饭店,Landmark Towers Hotel,江河景房,39.945961,116.462746,678,2
185,北京索菲特大酒店,Sofitel Beijing Central,网红泳池,39.906182,116.436882,1099,1
186,朗丽兹酒店(北京中关村软件园农大店),PALACE HOTELS (Beijing Zhongguancun Software Park Nongda Shop),免费停车,40.033582,116.287296,565,1
187,桔子水晶北京中关村人民大学酒店,Crystal Orange Beijing Zhongguancun People's University Hotel,机器人服务,39.964123,116.329124,661,1
188,长城山下院子,Great Wall Hill Yard,家庭房,40.410906,116.313549,501,1
189,北京南京大饭店,Nanjing Great Hotel,多功能厅,39.914538,116.408566,495,1
190,北京临空假日酒店(首都机场新国展店),Holiday Inn Beijing Airport Zone,健身室,40.130797,116.615896,559,1
191,北京大成路九号,No.9 Dacheng Road Hotel,免费停车,39.890656,116.269123,507,2
192,北京贵都大酒店,Guidu Hotel Beijing,免费停车,39.889846,116.367505,722,1
193,北京亦庄中芯智选假日酒店,Holiday Inn Express Beijing Yizhuang Center,免费停车,39.764714,116.508321,643,1
194,朝阳宾馆,Chao Yang Hotel,免费停车,39.917097,116.46979,498,1
195,北京光明饭店,Beijing Guangming Hotel,泳池,39.951412,116.469836,588,1
196,北京金茂万丽酒店,Renaissance Beijing Wangfujing Hotel,桑拿,39.921186,116.410662,1535,2
197,北京柏悦酒店,Park Hyatt Beijing,桑拿,39.907477,116.459188,2254,1
198,北京东方君悦大酒店,Grand Hyatt Beijing,行政酒廊,39.909634,116.414622,1627,1
199,格兰云天·阅酒店(北京奥宇店),The skytel(Beijing Aoyu Hotel),免费停车,39.762289,116.351699,511,2
200,北京三里屯通盈中心洲际酒店,InterContinental Beijing Sanlitun,桑拿,39.932918,116.45525,1930,1
201,朗丽兹酒店(中关村壹号永丰南地铁站店),Hotel ritz (Zhongguancun No.1 Yongfeng South Subway Station Branch),免费停车,40.068044,116.254651,597,1
202,北京金隅八达岭皇冠假日酒店,Crowne Plaza Beijing Badaling,SPA,40.475597,115.973589,867,2
203,北京商都酒店,Shangdu Hotel,智能客控,39.869355,116.368067,562,1
204,北京王府半岛酒店,The Peninsula Beijing,桑拿,39.915349,116.416428,2701,1
205,北京颐和安缦酒店,Aman Summer Palace,套房,39.999246,116.282762,5208,2
206,北京盛捷大兴酒店,Beijing Somerset Daxing Hotel,桑拿,39.77439,116.345965,635,1
207,北京中国石化会议中心,Sinopec Conference Center,桑拿,40.243439,116.264308,580,1
208,北京保利大厦酒店,Beijing Poly Plaza Hotel,泳池,39.934422,116.435541,710,1
209,北京昌平逸扉酒店,UrCove by Hyatt Beijing Changping,家庭房,40.220589,116.242073,479,1
210,北京励骏酒店,Legendale Hotel Beijing,泳池,39.91501,116.418934,1102,1
211,宾安思丽都公寓(北京望京酒仙桥798丽都店),Bin An Si Lido Apartment (Beijing Wangjing Jiuxianqiao 798 Lidu),酒店公寓,39.978762,116.505418,624,2
212,北京世纪金源大饭店,Empark Grand Hotel Beijing,泳池,39.952647,116.279358,980,1
213,桔子水晶北京崇文门酒店,Crystal Orange Beijing Chongwenmen Hotel,免费停车,39.894348,116.419351,670,2
214,北京丽晶酒店,Regent Beijing,桑拿,39.916359,116.418801,1478,2
215,北京维景国际大酒店,Grand Metropark Hotel Beijing,泳池,39.9587,116.451501,1213,1
216,北京瑰丽酒店,Rosewood Beijing,桑拿,39.920376,116.460582,2827,1
217,北京前门建国饭店,Qianmen Jianguo Hotel,健身室,39.886655,116.385579,559,1
218,北京璞瑄酒店,the Puxuan Hotel and Spa,管家服务,39.923984,116.410292,2636,1
219,北京中奥凯富国际酒店,Comfort Suites,健身室,40.004979,116.406967,675,1
220,北京大学中关新园,Zhongguanyuan Global Village PKU,桑拿,39.989831,116.318956,528,1
221,北京华尔道夫酒店,Waldorf Astoria Beijing,设计师酒店,39.916026,116.414069,2577,1
222,北京歌华开元大酒店,Gehua New Century Hotel Beijing,泳池,39.965069,116.393919,756,2
223,雁柏山庄,Yanbai Villa,免费停车,40.407631,116.669822,4912,2
224,北京中关村科技园智选假日酒店,Holiday Inn Express Beijing Zhongguancun Tech Park,家庭房,40.021436,116.303733,688,1
225,北京广播大厦酒店,Beijing Broadcasting Tower Hotel,多功能厅,39.907463,116.44319,638,1
226,北京东方花园饭店,Oriental Garden Hotel,管家服务,39.938085,116.434902,668,2
227,龙庆峡蒲里日记·冬至汤泉民宿,The diary of Puli in Longqing Gorge,温泉,40.530005,116.014896,516,2
228,北京新世界中心同派酒店,Beijing New World Centre Tongpai Hotel,桌球室,39.899183,116.41735,630,1
229,北京京通宾馆,beijing  jingtong Hotel,管家服务,39.901425,116.295777,693,1
230,和颐酒店(北京中关村软件园店),Yitel (Beijing Zhongguancun Software Park),免费停车,40.044663,116.29607,518,1
231,北京丽泽商务区原拓酒店,Y.TUO HOTEL(Beijing Lize FBD),免费停车,39.847044,116.334383,511,1
232,北京泛太平洋酒店,Pan Pacific Beijing,SPA,39.911266,116.371515,1308,2
233,base佰舍服务式公寓(北京三里屯工体店),base-Sanlitun Serviced Apartment,管家服务,39.935201,116.445924,654,2
234,北京君颐润华酒店,Junyi Runhua Hotel,棋牌室,39.85824,116.299478,625,2
235,北京万达文华酒店,Beijing Wanda Vista Hotel,SPA,39.909278,116.4701,1130,1
236,花筑·花蹊丽舍民宿(延庆景区店),Floral Hotel·Flower Inn Inn (Yanqing Scenic Area Branch),免费停车,40.409996,116.167852,611,1
237,北京西站六里桥地铁站轻居酒店,Beijing West Station Liuliqiao Subway Station Atour Light Hotel,影音房,39.881698,116.297191,570,1
238,北京丽思卡尔顿酒店(华贸中心),The Ritz-Carlton Beijing,桑拿,39.91055,116.480763,1924,2
239,北京宝格丽酒店,Bvlgari Hotel Beijing,桑拿,39.948001,116.457657,5830,2
240,北京圣水莲庭民宿,Shengshui Lianting Hostel,免费停车,39.649462,115.796802,548,1
241,北京燕莎中心凯宾斯基饭店,Kempinski Hotel Beijing Yansha Center,泳池,39.949278,116.465127,1285,2
242,北京泰康研修院,Beijing Taikang Research Institute,免费停车,40.097439,116.271898,559,1
243,北京中康国际酒店(北京朝阳高铁站店),Beijing C.KONG International Hotel (Beijing Chaoyang High-speed Railway Station),免费停车,39.931756,116.506813,578,1
244,北京大悦酒店,Le Joy Hotel,泳池,39.910969,116.373479,889,2
245,北京西西里度假庄园,Sicilia Villa & Resort,免费停车,39.959612,116.246129,688,2
246,北京唐山大厦,Tangshan Hotel,充电桩,39.911556,116.488161,516,2
247,花筑·北京云山中人文度假酒店,Floral Hotel·Beijing Yunshan Zhongren Resort Hotel,日光浴场,40.565838,116.679571,658,1
248,北京国二招宾馆,Guoerzhao Hotel,山景房,39.938811,116.356731,809,1
249,和颐至尊酒店(北京望京798店),Yitel Premium (Beijing Wangjing 798),智能客控,39.988392,116.491177,489,1
250,北京世园璞燊酒店,Shiyuan Pusen Hotel,泳池,40.442923,115.943219,989,2
251,base佰舍服务式公寓(北京王府井隆福寺街店),base-Wangfujing Serviced Apartment,机器人服务,39.928167,116.414387,684,2
252,艺龙酒店(北京清河高铁站小米科技园店),Elong Hotel (Beijing Qinghe High-speed Railway Station Xiaomi Science Park Branch),家庭房,40.056831,116.330971,414,1
253,北京丽都皇冠假日酒店,Crowne Plaza Beijing Lido,桑拿,39.978133,116.478642,1243,1
254,北京三里屯工体北路亚朵酒店,Atour Hotel Beijing Sanlitun Gongti North Road,停车场,39.940257,116.44478,670,1
255,北京万达嘉华酒店,Wanda Realm Beijing Hotel,行政酒廊,39.90681,116.227789,765,2
256,北京千禧大酒店,Grand Millennium Beijing,动人夜景,39.917066,116.459251,1013,1
257,北京JW万豪酒店,JW Marriott Hotel Beijing,桑拿,39.910843,116.481777,2465,1
258,北京外国专家大厦,Foreign Experts Building,多功能厅,39.987005,116.381717,468,2
259,北京大成路解放军302医院亚朵X酒店,"Building 1, No. 6 Dacheng Road, Fengtai District, Beijing",家庭房,39.888823,116.272087,526,1
260,北京鲁弘宾馆,Lu Hong Hotel,免费停车,39.870653,116.429397,497,2
261,泰莲庭溪畔酒店(北京雁栖湖店),Lotus‘s Secret Hotel (Beijing Yanqi Lake),免费停车,40.430395,116.589007,594,2
262,佳龙酒店(北京朝阳门总店),Jialong Hotel (Beijing Chaoyangmen),SPA,39.925177,116.430072,612,2
263,北京北纬四十度大酒店,NL40 Hotel,免费停车,39.961574,116.303127,510,1
264,北京中成天坛假日酒店,Holiday Inn Beijing Temple of Heaven,免费停车,39.861919,116.414894,677,2
265,北京百富怡大酒店,Bai Fu Yi Hotel,免费停车,39.943172,116.443918,638,2
266,北京大成路亚朵X酒店,Atour X Hotel Beijing Wukesong Jinghui Plaza,停车场,39.888646,116.247167,527,1
267,北京华侨大厦睿世酒店,Empark Prime Hotel Beijing,泳池,39.923917,116.411064,1260,1
268,北京冀中金牛酒店,Beijing Jizhong Taurus Hotel,管家服务,39.96392,116.308718,641,1
269,北京王府井文华东方酒店,Mandarin Oriental Wangfujing Beijing,桑拿,39.912827,116.410183,5933,1
270,北京北辰五洲皇冠国际酒店,V-Continent Beijing Parkview Wuzhou Hotel,桑拿,39.989914,116.405578,1570,2
271,北京西荣阁酒店,West Mansion Hotel,免费停车,39.940505,116.280138,488,2
272,北京远航国际酒店(首都机场新国展店),VOYAGE INTERNATIONAL HOTEL,免费停车,40.062271,116.585986,397,1
273,北京东直门亚朵S酒店,Atour S Hotel (Beijing Dongzhimen),机器人服务,39.951329,116.443737,816,1
274,北京朝阳悠唐皇冠假日酒店,Crowne Plaza Beijing Chaoyang U-Town,泳池,39.921291,116.43847,949,1
275,北京海润艾丽华酒店及服务公寓,Ariva Beijing West Hotel & Serviced Apartments,桑拿,39.974024,116.302536,575,2
276,北京西国贸大酒店,West International Trade Grand Hotel,管家服务,39.855613,116.3089,811,1
277,北京枫烨园酒店,Fortune Grove Hotel,泳池,40.037212,116.396986,2198,1
278,北京华彬费尔蒙酒店,Fairmont Beijing,SPA,39.905328,116.451961,1188,1
279,北京星明湖金雁酒店,Xingming Lake Jinyan Hotel,桑拿,39.612752,116.441866,517,2
280,蔚徕酒店(北京通州环球度假区店),Vyluk Hotel (Beijing Tongzhou Global Resort Branch),免费停车,39.891668,116.663827,411,1
281,北京商务会馆,Beijing Commercial Business Hotel,免费停车,39.867613,116.359054,581,1
282,北京山西大厦,Shanxi Hotel,免费停车,39.857654,116.382469,681,2
283,北京西南华邑酒店,HUALUXE Beijing Xinan,泳池,39.899664,116.275295,1132,2
284,北京怡亨酒店,Hotel Eclat Beijing,私人泳池,39.920379,116.450156,1788,1
285,北京国贸大酒店,"China World Summit Wing, Beijing",洗衣服务,39.913085,116.45871,1931,2
286,国际艺苑大酒店,Guo Ji Yi Yuan Hotel,多功能厅,39.918993,116.411278,680,1
287,北京贵宾楼饭店,Grand Hotel Beijing,泳池,39.909078,116.407259,1200,2
288,壹色四合院酒店(北京天安门王府井店),Beijing Unified Courtyard Hotel,儿童乐园,39.920675,116.422773,770,1
289,北京嘉度Resort,Jiadu Resort,免费停车,40.394672,116.513455,559,1
290,北京浦金凯航国际酒店,Beijing Pujin Kai Hang International Hotel,免费停车,39.812608,116.144402,699,2
291,北京中奥马哥孛罗大酒店,Marco Polo Parkside Beijing,泳池,40.005555,116.409835,829,2
292,北京日出东方凯宾斯基酒店,Sunrise Kempinski Hotel Beijing,泳池,40.386998,116.677182,1598,1
293,JEN北京新国贸饭店,Jen Beijing by Shangri-La,桑拿,39.913296,116.461245,1458,1
294,北京冠京嘉元酒店,Guanjing Jiayuan Hotel,免费停车,39.849371,116.382669,556,2
295,北京世园悦沁酒店,Expo Serene Hotel Shiyuan,桑拿,40.439811,115.962738,1088,2
296,北京怡湾酒店,Beijing Yiwan Hotel,免费停车,40.344175,116.622103,522,2
297,泰福楼饭店(北京西站丽泽商务区店),Taifulou Hotel,免费停车,39.878612,116.30505,531,1
298,北京地大国际会议中心,Geosciences International Conference Centre,免费停车,39.991579,116.345174,620,2
299,北京京伦饭店,Jinglun Hotel,机器人服务,39.909004,116.454721,695,1
300,北京金源丽晶酒店,Lijing Hotel,多功能厅,39.849618,116.386568,505,2
301,秋果酒店(北京丽泽金融商务区店),QIUGUO HOTEL (Beijing Lize Financial Business District ),免费停车,39.873882,116.294064,395,1
302,坊间花舍酒店(北京宋家庄地铁站店),Fangjian Huashe Hotel (Beijing Songjiazhuang Metro Station),停车场,39.851397,116.439363,487,1
303,北京花间堂·后海,Blossom House·HouHai Beijing,湖景房,39.941296,116.38336,1014,1
304,秋果S酒店(北京首都机场二店),Qiuguo S Hotel (Beijing Capital Airport Second Branch),免费停车,40.062835,116.584684,319,1
305,北京朗丽兹西山花园酒店,Palace Garden Hotel,免费停车,40.066988,116.249209,869,2
306,北京三里屯CHAO酒店,CHAO Sanlitun Beijing,免费停车,39.932883,116.451563,2026,2
307,丽柏酒店(北京通州环球度假区店),Park Inn by Radisson Beijing Tongzhou Universal Resort,免费停车,39.864476,116.666182,489,1
308,北京远通维景国际大酒店,Grand Metropark Yuantong Hotel Beijing,动人夜景,39.931449,116.356568,898,2
309,北京云蒙山居民宿,Yunmeng Shanju Guesthouse,充电桩,40.556252,116.771045,588,1
310,北京金融街威斯汀大酒店,the Westin Beijing Financial Street,泳池,39.917421,116.359176,1516,1
311,北京松鹤建国酒店(培训中心),Songhe Jianguo Hotel (Training Center),免费停车,40.084393,116.746086,531,2
312,北京东直门智选假日酒店,Holiday Inn Express Beijing Dongzhimen,免费停车,39.936844,116.443363,816,1
313,环球影城大酒店,The Universal Studios Grand Hotel,行李寄存,39.853667,116.679896,1447,1
314,诺金度假酒店–北京环球度假区,NUO Resort Hotel-Universal Beijing Resort,提前入园,39.851004,116.682116,1546,1
315,国际种业培训中心酒店,International Seed Industry Training Center,免费停车,39.717426,116.689447,558,2
316,北京香格里拉饭店,"Shangri-La Hotel, Beijing",桑拿,39.944303,116.308093,1269,1
317,北京四季酒店,Four Seasons Hotel Beijing,美食酒店,39.950086,116.466648,1784,2
318,北京北方佳苑饭店,The North Garden Hotel Beijing,多功能厅,39.910407,116.41272,678,1
319,北京蔓兰酒店,Hotel MoMc,泳池,39.950638,116.438207,720,2
320,秋果酒店(北京国展安贞中日友好医院店),TRUE GO HOTEL (National Exhibition Anzhen Sino-Japanese Friendship Hospital),免费停车,39.970119,116.425252,595,2
321,麗枫酒店(北京天安门广场王府井大街店),Lavande Hotel (Beijing Tiananmen Square Wangfujing Street Branch),免费停车,39.916637,116.410549,627,1
322,北京金台夕照酒店,Xi Zhao Temple Hotel,充电桩,39.890024,116.439725,508,1
323,北京华侨夜泊君亭酒店,SSAW Garden Hotel Beijing,自营亲子房,39.943698,116.423064,797,2
324,北京香江意舍(天安门王府井店),Hotel Yoo,免费停车,39.90985,116.405697,528,1
325,秋果酒店(北京华贸店),Qiu Guo Hotel (Beijing Huamao),会议厅,39.912372,116.489145,458,2
326,北京乐多港万豪酒店,Beijing Marriott Hotel Changping,桑拿,40.23264,116.188888,899,1
327,北京新世界酒店,New World Beijing Hotel,桑拿,39.898291,116.412499,1259,2
328,北京昆泰酒店,Kuntai Hotel,桑拿,40.006102,116.491036,893,1
329,北京昆泰嘉华酒店,Kuntai Royal Hotel Beijing,桑拿,39.923166,116.442338,818,2
330,北京北辰洲际酒店,Intercontinental Beijing Beichen,桑拿,39.998429,116.388279,1203,1
331,北京友谊宾馆贵宾楼,Beijing Friendship Hotel Grand Builing,多功能厅,39.963727,116.320105,767,2
332,汇廷国际酒店(北京宋家庄地铁站店),HUITING INTERNA TIONAL HOTEL,窗外好景,39.84338,116.424416,599,1
333,北京嘉里大酒店,"Kerry Hotel, Beijing",泳池,39.913977,116.458198,1458,1
334,北京行宫国际酒店,Palace International Hotel Beijing,桑拿,39.932811,116.508232,634,1
335,北京名人国际大酒店,Celebrity International Grand Hotel,行政酒廊,39.996032,116.406935,868,1
336,北京丽都服务式酒店公寓(芳园西路店),Lido Serviced Residence(Fangyuan West Road Branch),网红泳池,39.975838,116.480847,675,2
337,北京希尔顿酒店,Hilton Beijing,泳池,39.952703,116.462387,1207,1
338,北京港澳中心瑞士酒店,Swissôtel Beijing Hong Kong Macau Center,泳池,39.933112,116.436278,980,1
339,北京佳兆业铂域行政公寓,Orientino Executive Apartments Beijing,酒店公寓,39.906785,116.479125,1430,1
340,北京朝林松源酒店,Zhaolin Grand Hotel,桑拿,39.792289,116.505711,1888,1
341,北京观禾酒店,GOOHUG BEIJING,行政酒廊,40.013955,116.468999,863,1
342,秋果S酒店(北京国家会议中心鸟巢店),Qiuguo S Hotel (Beijing National Convention Center Bird Nest Branch),免费停车,39.999339,116.401133,798,1
343,喆啡酒店(北京工体三里屯太古里店),James Joyce Coffetel (Beijing Gongti Sanlitun),家庭房,39.932412,116.452848,445,1
344,桔子水晶北京南锣鼓巷酒店,Crystal Orange  Beijing Nanluoguxiang Hotel,儿童乐园,39.936527,116.407122,758,1
345,北京中国大饭店,"China World Hotel, Beijing",桑拿,39.910244,116.459106,1458,1
346,北京东隅酒店,EAST Beijing,泳池,39.968729,116.492248,1049,1
347,长城脚下的公社,Commune by the Great Wall,设计师酒店,40.340327,116.055377,1091,1
348,北京新云南皇冠假日酒店,Crowne Plaza Beijing Sun Palace,泳池,39.972409,116.434698,965,1
349,北京饭店诺金-王府井,Beijing Hotel NUO-Wangfujing,泳池,39.908799,116.410236,1231,2
350,麗枫酒店(北京南站木樨园地铁站店),Lavande Hotel (Guangzhou South Railway Station Muxiyuan),免费停车,39.855981,116.407103,435,1
351,北京在之禾酒店,Zhi Resort,桑拿,40.014208,116.409625,1580,2
352,北京中关村皇冠假日酒店,Crowne Plaza Beijing Zhongguancun,泳池,39.975966,116.322604,1224,2
353,北京白河湾朝林松源酒店,Beijing Baihewan Zhaolin Grand Hotel,网红泳池,40.67272,116.67062,2399,2
354,北京泰富酒店,Tylfull Hotel Beijing,泳池,39.975092,116.352364,1328,2
355,北京怡生园会议中心,Eastern Garden Hotel,桑拿,40.199506,116.693492,847,2
356,北京金融街亚朵酒店,Atour Hotel Beijing Financial Street,机器人服务,39.903791,116.36459,816,1
357,希岸酒店(北京天安门前门步行街店),Xana Hotel at Qianmen Street,智能客控,39.894367,116.398334,503,1
358,北京南锣鼓巷古韵坊四合院漫心府,Beijing Nanluoguxiang Ancient Rhyme Manxin Mansion,四合院,39.939309,116.40513,784,1
359,北京金融街行政公寓,Financier Executive Residence,酒店公寓,39.918216,116.359064,1151,2
360,北京牡丹宾馆,Peony Hotel,免费停车,39.977442,116.369264,607,2
361,北京大兴机场丽筠酒店,Radisson Hotel Beijing Daxing Airport,亲子主题房,39.525616,116.412946,510,1
362,古北水镇望京楼酒店,Wangjing Tower Hotel,桑拿,40.655949,117.278514,1215,1
363,东方圣达酒店(北京天安门广场王府井地铁站店),Dongfang Shengda Hotel(Near Beijing Tiananmen Square，the Forbidden City，Wangfujing Subway Station),管家服务,39.911354,116.412972,614,1
364,北京天安门王府井步行街亚朵酒店,Atour Hotel of Beijing Tiananmen Wangfujing Pedestrian Street,机器人服务,39.914663,116.410811,869,1
365,橙芷·秋果酒店(北京天安门广场店),TRUE GO Hotel(Beijing Tiananmen Square),管家服务,39.89853,116.40087,769,1
366,桔子酒店(北京学院路店),Orange Hotel (Beijing Xueyuan Road),免费停车,39.998686,116.364527,620,1
367,栖湖饭店,Qihu Hotel,网红泳池,40.403381,116.678707,899,1
368,北京明珠酒店(北京大兴机场店),Beijing CSN Pearl Hotel,自营亲子房,39.521132,116.41096,451,2
369,北京中关村北外亚朵S酒店,Atour S Hotel Zhongguancun Foreign Studies University Beijing,管家服务,39.955822,116.308762,746,1
370,北京海航大厦万豪酒店,Beijing Marriott Hotel Northeast,泳池,39.95986,116.467363,1187,2
371,北京和园景逸大酒店,Heyuan Royal Garden Hotel,泳池,40.085636,116.486682,630,1
372,北京达美奥克伍德华庭酒店公寓,Oakwood Residence Damei Beijing,泳池,39.93811,116.516916,910,2
373,麗枫酒店(北京西站岳各庄桥店),Lavande Hotel (Beijing West Railway Station Yuegezhuang Bridge),免费停车,39.873112,116.280177,418,1
374,北京南站亚朵酒店,Atour Hotel (Beijing South Railway Station),健身室,39.879314,116.375005,746,1
375,桔子酒店(北京三里屯太古里店),Orange Hotel (Beijing Sanlitun taiguli),机器人服务,39.932203,116.453523,595,2
376,北京文津国际酒店,Wenjin Hotel,桑拿,39.993219,116.327791,1021,1
377,北京前门四合院漫心府,Beijing Qianmen Courtyard Manxinfu Hotel,四合院,39.894936,116.399673,901,1
378,北京蓝湾国际酒店(首都机场新国展店),Beijing LanWan International Hotel (Capital Airport Xinguozhan Branch),免费停车,40.062654,116.571916,269,2
379,云颐自在酒店(北京清河高铁站小米科技园店),Yunxuan Zizhu Hotel (Beijing Qinghe High-speed Railway Station Xiaomi Science Park Branch),免费停车,40.047739,116.327527,669,1
380,北京上地清河高铁站亚朵S酒店,Atour Hotel Beiijng Shangdi Qinghe high speed railway station,免费停车,40.03911,116.31303,746,1
381,一木酒店(北京三元桥燕莎使馆区店),Yimore,管家服务,39.957056,116.461871,529,1
382,喆啡酒店(北京王府井大街协和医院店),James Joyce Coffetel (Beijing Wangfujing Street Union Hospital),家庭房,39.912508,116.411891,532,2
383,北京三里屯首北兆龙饭店,"BEI Zhaolong Hotel, JdV by Hyatt",多功能厅,39.933322,116.460566,910,2
384,朗丽兹太和府酒店(北京生命科学园地铁站店),Langritz Taihefu Hotel,四合院,40.092686,116.286855,425,2
385,北京丽亭华苑酒店,Park Plaza (Beijing Science Park),健身室,39.977469,116.345077,770,2
386,北京复兴门亚朵酒店,Atour Hotel (Beijing Fuxingmen),免费停车,39.905647,116.3584,1045,2
387,麗枫酒店(北京回龙观龙泽地铁站店),Lavande Hotel Beijing Longze Metro Station Store,免费停车,40.073273,116.324798,452,1
388,桔子酒店(北京五棵松体育馆店),Orange Hotel,机器人服务,39.903175,116.283776,568,1
389,麗枫酒店(北京天安门广场北京站店),Lavande Hotel (Beijing Tiananmen Square Beijing Railway Station),管家服务,39.905405,116.425076,490,1
390,桔子水晶北京国贸中心酒店,Crystal Orange Beijing International Trade Center Hotel,管家服务,39.906357,116.463045,763,1
391,希岸Deluxe酒店(北京天安门珠市口地铁站店),Xi'an Deluxe Hotel Beijing Tiananmen ZhuKou subway station stoye,智能客控,39.890815,116.401366,562,1
392,北京丽亭酒店,Park Plaza Beijing Wangfujing,机器人服务,39.916572,116.419459,954,1
393,北京天安门前门大街漫心酒店,Beijing Tiananmen Qianmen Street Manxin Hotel,机器人服务,39.895201,116.398351,775,1
394,秋果酒店(北京西站六里桥东地铁站店),True Go Hotel (Beijing West Railway Station Liuliqiao East Subway Station),机器人服务,39.88005,116.312185,371,1
395,艺龙酒店(北京通州环球梨园地铁站店),Elong Hotel (Beijing Tongzhou Liyuan Metro Station),机器人服务,39.884847,116.667012,428,2
396,时光漫步S酒店(北京科技大学鸟巢店),Time Walk S Hotel (Beijing University of Science and Technology Bird's Nest),管家服务,40.001452,116.377578,608,1
397,北京五洲大酒店,Beijing Continental Grand Hotel,免费停车,39.989379,116.404237,761,2
398,桔子水晶北京奥体中心鸟巢酒店,Crystal Orange Beijing Olympic Sports Center Bird's Nest Hotel,免费停车,39.9823,116.409389,698,1
399,北京18HOW前门葡萄院子,putaoyuanzi Hotel,儿童乐园,39.891357,116.393631,781,1
400,景里酒店(北京合生汇大郊亭地铁站店),Jingli Hotel (Beijing Heshenghui Dajiaoting Subway Station Branch),智能客控,39.890206,116.490783,428,2
