id,name,type,lat,lon,opentime,endtime,price,recommendmintime,recommendmaxtime
0,上海迪士尼度假区,游乐园/体育娱乐,31.148267,121.671964,08:30,21:30,399.0,2.0,3.5
1,东方明珠,人文景观,31.245417,121.50635,09:00,21:00,199.0,0.5,2.0
2,外滩,人文景观,31.243453,121.497204,00:00,24:00,0.0,1.5,2.0
3,上海海昌海洋公园,游乐园/体育娱乐,30.920947,121.910782,09:30,18:00,149.0,1.0,2.0
4,豫园,文化旅游区,31.232431,121.49909,09:00,16:30,40.0,0.5,1.0
5,上海野生动物园,游乐园/体育娱乐,31.06138,121.727995,09:00,22:00,165.0,1.5,3.0
6,黄浦江游览(十六铺码头),游乐园/体育娱乐,31.23371,121.504723,11:00,22:00,108.0,2.0,3.0
7,黄浦江,人文景观,31.24412,121.499605,00:00,24:00,0.0,0.5,2.0
8,上海天文馆,博物馆/纪念馆,30.918563,121.932414,09:30,16:00,0.0,1.5,2.0
9,上海博物馆,博物馆/纪念馆,31.234149,121.482358,09:00,17:00,0.0,0.5,1.0
10,上海海洋水族馆,游乐园/体育娱乐,31.246755,121.508587,09:00,18:00,155.0,1.0,2.5
11,上海中心大厦,商业街区,31.239171,121.512035,08:30,22:00,180.0,1.5,3.0
12,上海之巅观光厅,人文景观,31.239112,121.512114,08:30,22:00,180.0,2.0,3.0
13,磁浮列车,其它,31.208606,121.567908,06:45,21:42,50.0,2.0,2.5
14,迪士尼小镇,游乐园/体育娱乐,31.145926,121.668349,10:00,22:00,0.0,0.5,1.0
15,城隍庙,历史古迹,31.232396,121.497994,00:00,24:00,10.0,0.5,1.0
16,上海动物园,游乐园/体育娱乐,31.198678,121.369418,08:00,18:30,40.0,0.5,1.0
17,南京路步行街,商业街区,31.243231,121.4907,00:00,24:00,0.0,1.0,2.0
18,上海千古情,游乐园/体育娱乐,31.1929,121.491182,10:00,18:30,298.0,1.5,3.0
19,上海欢乐谷,游乐园/体育娱乐,31.101969,121.22572,09:30,19:00,150.0,2.0,3.0
20,上海杜莎夫人蜡像馆,游乐园/体育娱乐,31.240759,121.480735,10:00,19:00,165.0,0.5,1.0
21,陆家嘴,商业街区,31.240944,121.512267,00:00,24:00,0.0,1.5,3.0
22,上海自然博物馆,博物馆/纪念馆,31.241221,121.469143,09:00,17:00,0.0,0.5,1.0
23,静安雕塑公园,公园,31.240967,121.47046,00:00,24:00,0.0,0.5,1.0
24,金茂大厦,商业街区,31.241027,121.512255,08:30,21:30,98.0,0.5,2.0
25,金茂大厦88层观光厅,人文景观,31.241024,121.512231,08:30,21:30,98.0,2.0,3.5
26,上海薰衣草公园,公园,31.147702,121.681945,00:00,24:00,0.0,0.5,2.0
27,广富林文化遗址,历史古迹,31.068942,121.20374,09:00,17:00,0.0,2.5,4.0
28,上海影视乐园,游乐园/体育娱乐,31.016708,121.318804,08:30,20:30,69.0,1.0,1.5
29,都市观光巴士,其它,31.244773,121.507435,09:00,19:00,57.0,1.0,2.0
30,浦东美术馆,美术馆/艺术馆,31.243762,121.50292,10:00,21:00,80.0,2.0,2.5
31,外滩观光隧道,人文景观,31.245464,121.497875,09:00,22:30,45.0,2.5,3.0
32,朱家角古镇景区,文化旅游区,31.115934,121.060362,08:30,18:00,0.0,1.0,2.5
33,上海乐高探索中心,游乐园/体育娱乐,31.229002,121.402378,10:30,18:30,199.0,2.0,3.5
34,黄浦江游览（东方明珠码头）,游乐园/体育娱乐,31.246281,121.503539,10:00,21:00,90.0,0.5,1.5
35,威尼斯小镇,人文景观,31.23644,121.384053,00:00,24:00,0.0,2.5,3.0
36,上海汽车博物馆,博物馆/纪念馆,31.284695,121.1767,09:30,16:30,55.0,1.0,2.0
37,浦江游览,游乐园/体育娱乐,31.234882,121.50318,11:00,22:00,108.0,1.5,2.0
38,中国航海博物馆,博物馆/纪念馆,30.902445,121.926006,09:30,16:00,27.0,2.5,3.0
39,田子坊,商业街区,31.214113,121.474974,00:00,24:00,0.0,2.5,3.0
40,静安寺,历史古迹,31.229947,121.451595,07:30,17:00,0.0,2.0,2.5
41,武康路,商业街区,31.213621,121.44636,00:00,24:00,0.0,1.0,2.0
42,上海大自然野生昆虫馆,游乐园/体育娱乐,31.246055,121.504313,09:00,17:00,88.0,0.5,1.5
43,疯狂动物城,游乐园/体育娱乐,31.148267,121.671964,08:30,21:30,0.0,2.0,2.5
44,人民广场,公园,31.235297,121.481144,00:00,24:00,0.0,1.5,2.0
45,上海电影博物馆,博物馆/纪念馆,31.192501,121.444536,09:30,16:30,60.0,2.5,3.0
46,迪士尼朋友见面处,游乐园/体育娱乐,31.147937,121.668419,08:30,15:00,0.0,0.5,2.0
47,世博会博物馆,博物馆/纪念馆,31.200189,121.488325,09:00,17:00,0.0,1.5,2.0
48,BUS TOUR 上海观光游,游乐园/体育娱乐,31.240484,121.480839,09:00,17:30,60.0,3.0,3.5
49,蓝精灵乐园-上海世茂精灵之城主题乐园,游乐园/体育娱乐,31.068019,121.165801,10:00,18:00,156.0,2.0,3.0
50,上海环球金融中心,人文景观,31.241063,121.513399,07:00,21:00,180.0,2.0,3.5
51,星愿公园,公园,31.14241,121.66966,10:00,18:00,0.0,1.0,1.5
52,上海玛雅海滩水公园,游乐园/体育娱乐,31.102329,121.215427,10:00,19:00,88.0,0.5,2.0
53,黄浦江游览（金陵东路码头）,人文景观,31.237792,121.499969,15:30,20:00,88.0,0.5,1.0
54,震旦博物馆,博物馆/纪念馆,31.240324,121.506166,10:00,17:00,60.0,0.5,2.0
55,“快乐船长”黄浦江游船,游乐园/体育娱乐,31.231249,121.507829,18:30,20:30,268.0,1.0,1.5
56,上海长风海洋世界,游乐园/体育娱乐,31.230932,121.403475,09:30,18:00,149.0,1.0,2.0
57,上海玻璃博物馆,博物馆/纪念馆,31.349786,121.478542,10:00,17:00,80.0,1.5,2.0
58,上海四行仓库抗战纪念馆,博物馆/纪念馆,31.246263,121.477852,09:00,12:00,0.0,2.0,3.0
59,上海博物馆(东馆),博物馆/纪念馆,31.225454,121.544678,10:00,18:00,0.0,2.0,3.0
60,申城观光双层巴士,游乐园/体育娱乐,31.245045,121.507363,10:00,18:00,49.0,3.0,3.5
61,安徒生童话乐园,游乐园/体育娱乐,31.329324,121.518034,00:00,24:00,75.0,0.5,1.0
62,武康大楼,商业街区,31.210733,121.44472,00:00,24:00,0.0,2.5,4.0
63,上海观复博物馆,博物馆/纪念馆,31.23925,121.512312,10:00,17:00,88.0,1.5,2.0
64,光明生态园,公园,31.153317,121.677506,09:00,17:00,0.0,1.0,2.0
65,思南公馆,文化旅游区,31.220366,121.475006,00:00,24:00,0.0,0.5,1.0
66,上海辰山植物园,公园,31.081652,121.189078,08:00,17:30,60.0,0.5,1.0
67,上海城市历史发展陈列馆,博物馆/纪念馆,31.245414,121.506379,09:00,21:00,0.0,1.0,2.5
68,上海共青森林公园,公园,31.325266,121.557183,05:00,18:00,0.0,2.5,4.0
69,东平国家森林公园,公园,31.689489,121.486723,08:30,16:00,35.0,2.0,3.0
70,锦江乐园,游乐园/体育娱乐,31.145702,121.414948,09:00,17:30,123.0,1.5,2.0
71,新天地,商业街区,31.227165,121.481244,00:00,24:00,0.0,0.5,1.0
72,上海星空艺术馆,美术馆/艺术馆,31.242563,121.490424,10:00,22:00,39.8,0.5,2.0
73,中华艺术宫,美术馆/艺术馆,31.189988,121.501334,10:00,18:00,0.0,3.0,4.0
74,上海老街(人民路),商业街区,31.230123,121.495451,00:00,24:00,0.0,1.5,3.0
75,比斯特上海购物村,商业街区,31.145974,121.686884,10:00,22:00,0.0,1.0,2.0
76,徐家汇书院,人文景观,31.197035,121.443535,09:00,21:00,0.0,0.5,2.0
77,上海大观园,游乐园/体育娱乐,31.079238,120.916634,08:15,17:00,40.0,0.5,2.0
78,上海宋庆龄故居纪念馆,博物馆/纪念馆,31.210427,121.445413,09:00,17:00,0.0,0.5,1.0
79,世纪公园,公园,31.221747,121.558238,05:00,22:00,0.0,1.0,2.0
80,滴水湖,公园,30.898692,121.948201,00:00,24:00,0.0,0.5,2.0
81,上海市历史博物馆,博物馆/纪念馆,31.237071,121.477347,09:00,17:00,0.0,1.0,2.5
82,金山城市沙滩,游乐园/体育娱乐,30.714121,121.355903,08:30,21:30,40.0,1.5,2.0
83,超级时空魔方(上海元宇宙体验馆),游乐园/体育娱乐,31.254955,121.504541,10:00,22:00,128.0,2.5,3.0
84,碧海金沙,游乐园/体育娱乐,30.830184,121.556153,08:30,21:00,65.0,0.5,1.0
85,枫泾古镇,历史古迹,30.893168,121.022096,08:00,17:00,0.0,3.0,3.5
86,外白渡桥,人文景观,31.24957,121.49699,00:00,24:00,0.0,0.5,1.0
87,深坑秘境乐园-上海世茂精灵之城主题乐园,游乐园/体育娱乐,31.063856,121.161784,10:00,18:00,120.0,2.0,2.5
88,东方明珠259米全透明悬空观光廊,游乐园/体育娱乐,31.245304,121.506414,10:00,20:00,0.0,1.5,3.0
89,中国共产党第一次全国代表大会会址,红色景点,31.22608,121.481627,09:00,12:00,0.0,1.5,2.0
90,时空缆车,游乐园/体育娱乐,30.919012,121.910306,09:30,17:30,0.0,1.0,2.0
91,七宝古镇,历史古迹,31.158938,121.361199,00:00,24:00,0.0,1.5,2.0
92,东滩湿地公园,公园,31.52401,121.955977,08:30,17:00,18.0,0.5,1.0
93,东方绿舟景区,游乐园/体育娱乐,31.114697,121.017139,08:30,17:00,50.0,2.5,4.0
94,浦江郊野公园,公园,31.054805,121.514275,08:30,17:00,0.0,0.5,1.5
95,上海奇迹花园,公园,31.060286,121.514217,08:30,17:30,0.0,3.0,4.0
96,“水晶公主”黄浦江游船,游乐园/体育娱乐,31.231249,121.507942,18:45,20:45,375.0,2.0,3.0
97,SKY RING 屋顶摩天轮,游乐园/体育娱乐,31.250707,121.478594,11:00,21:30,60.0,2.5,3.0
98,小猪佩奇的玩趣世界,游乐园/体育娱乐,31.248039,121.562358,10:00,20:00,0.0,2.5,3.0
99,1192弄老上海风情街(世纪汇广场店),商业街区,31.234083,121.532799,10:00,22:00,0.0,0.5,1.0
100,朵云书院·旗舰店,人文景观,31.239184,121.512016,10:30,20:00,0.0,3.0,3.5
101,马勒别墅,历史古迹,31.229207,121.462775,00:00,24:00,80.0,2.0,3.5
102,太阳岛旅游度假区,游乐园/体育娱乐,31.043011,121.079387,09:30,16:30,30.0,1.0,2.5
103,陆家嘴中心绿地,公园,31.243519,121.512535,05:00,22:00,0.0,2.0,3.5
104,南京西路,商业街区,31.233077,121.459849,00:00,24:00,0.0,1.0,1.5
105,351米太空舱,游乐园/体育娱乐,31.245215,121.506569,09:00,21:00,299.0,1.5,3.0
106,创极速光轮,游乐园/体育娱乐,31.147973,121.66329,08:30,20:30,0.0,1.5,2.0
107,上海梵高星空艺术馆,美术馆/艺术馆,31.241696,121.481935,10:00,21:30,39.9,1.5,3.0
108,安福路,商业街区,31.220296,121.44986,00:00,24:00,0.0,1.5,3.0
109,上海犹太难民纪念馆,博物馆/纪念馆,31.259707,121.515776,09:00,17:00,20.0,0.5,2.0
110,“龙船”黄浦江游船,游乐园/体育娱乐,31.227439,121.511876,19:00,21:00,264.0,1.0,2.0
111,泰晤士小镇,商业街区,31.039962,121.204015,00:00,24:00,0.0,0.5,1.0
112,和平饭店博物馆,博物馆/纪念馆,31.244696,121.495976,10:00,19:00,0.0,3.0,3.5
113,南翔古镇,历史古迹,31.297143,121.313593,00:00,24:00,0.0,1.5,3.0
114,徐家汇天主教堂,历史古迹,31.1975,121.442629,09:00,16:00,0.0,1.5,3.0
115,远望1号,游乐园/体育娱乐,31.200182,121.495666,09:00,17:00,80.0,0.5,2.0
116,上海佛罗伦萨小镇,商业街区,31.202391,121.771214,10:00,21:00,0.0,1.0,2.0
117,七宝老街,商业街区,31.158807,121.360938,00:00,24:00,0.0,2.0,3.5
118,外滩万国建筑博览群,人文景观,31.244915,121.495818,00:00,24:00,0.0,1.0,2.0
119,1933老场坊,历史古迹,31.260148,121.49833,07:00,22:00,0.0,1.0,2.5
120,国家会展中心(上海),商业街区,31.196214,121.308582,10:00,17:00,0.0,0.5,2.0
121,金陵东路渡口,人文景观,31.23815,121.499825,00:00,24:00,0.0,1.0,2.0
122,上海海湾国家森林公园,公园,30.867699,121.697069,08:30,16:30,55.0,1.5,2.0
123,愚园路历史风貌保护区,历史古迹,31.227868,121.444871,00:00,24:00,0.0,1.0,2.0
124,顾村公园,公园,31.344263,121.374831,06:00,18:00,0.0,3.0,4.0
125,上海外滩美术馆,美术馆/艺术馆,31.246931,121.494113,10:00,18:00,0.0,3.0,3.5
126,周浦花海,公园,31.125903,121.650622,08:00,17:00,0.0,3.0,4.0
127,上海滨江森林公园,公园,31.38897,121.534393,08:00,17:00,0.0,0.5,2.0
128,上海当代艺术博物馆,博物馆/纪念馆,31.206746,121.505082,11:00,19:00,0.0,1.5,3.0
129,上海植物园,公园,31.153874,121.450949,07:00,17:00,0.0,1.0,2.5
130,金茂大厦云中漫步,游乐园/体育娱乐,31.240849,121.512241,08:30,21:30,298.0,2.0,2.5
131,西沙明珠湖景区,自然风光,31.743883,121.263493,08:30,16:30,0.0,2.5,3.0
132,浦东新区陆家嘴图书馆,人文景观,31.247632,121.525499,08:00,22:00,0.0,1.0,2.0
133,思南路,人文景观,31.216219,121.476539,00:00,24:00,0.0,2.0,2.5
134,上海蟠龙天地,商业街区,31.195465,121.282328,10:00,22:00,0.0,2.5,4.0
135,飞越上海(第一百货店),商业街区,31.241421,121.48184,10:00,22:00,49.9,2.5,3.0
136,东林寺,历史古迹,30.900318,121.17239,08:00,16:30,26.0,2.0,2.5
137,遇见博物馆·上海静安馆,博物馆/纪念馆,31.297082,121.449386,10:00,18:30,0.0,0.5,2.0
138,苏州河,人文景观,31.249829,121.493465,00:00,24:00,0.0,1.0,2.0
139,ParadoxMuseum悖论博物馆,博物馆/纪念馆,31.225906,121.471762,10:00,20:00,155.0,2.0,3.5
140,淮海路,商业街区,31.224781,121.476199,00:00,24:00,0.0,2.5,3.0
141,佘山国家森林公园,公园,31.100768,121.201907,08:30,17:00,0.0,1.0,1.5
142,上海邮轮中心,商业街区,31.408816,121.511765,00:00,24:00,0.0,2.0,3.0
143,上海城市规划展示馆,博物馆/纪念馆,31.237364,121.482137,09:00,17:00,0.0,1.0,2.0
144,广富林文化展示馆,博物馆/纪念馆,31.068942,121.20374,09:00,17:00,30.0,3.0,4.0
145,上海世博园,游乐园/体育娱乐,31.193041,121.492949,00:00,24:00,0.0,1.0,2.0
146,颠倒艺术馆(上海旗舰店),美术馆/艺术馆,31.242508,121.505424,10:00,22:00,77.9,1.0,1.5
147,鲁迅公园,公园,31.277458,121.489991,05:00,21:00,0.0,1.5,3.0
148,中山公园,公园,31.228269,121.425343,00:00,24:00,0.0,0.5,1.0
149,龙华寺,历史古迹,31.181625,121.45827,07:00,16:30,0.0,0.5,1.0
150,世纪大道樱桃园,公园,31.239775,121.520708,00:00,24:00,0.0,3.0,3.5
151,上海JOYPOLIS世嘉都市乐园,游乐园/体育娱乐,31.240478,121.419654,11:00,21:00,118.0,3.0,3.5
152,季高兔窝窝亲子园,游乐园/体育娱乐,31.147696,121.68194,00:00,24:00,49.9,2.5,4.0
153,长风公园,公园,31.230871,121.406081,08:30,17:00,0.0,1.0,2.5
154,玉佛禅寺,人文景观,31.247785,121.451529,08:00,16:30,10.0,1.0,2.5
155,263米主观光层,人文景观,31.245306,121.50642,09:00,21:00,0.0,1.0,2.0
156,宝龙美术馆,美术馆/艺术馆,31.164081,121.364374,10:00,18:00,0.0,3.0,4.0
157,北外滩国客中心,人文景观,31.252866,121.503717,06:30,22:00,0.0,3.0,3.5
158,魔都矩阵,游乐园/体育娱乐,31.252651,121.504804,10:00,20:30,90.0,0.5,1.0
159,上海儿童博物馆,博物馆/纪念馆,31.199852,121.419405,08:45,16:45,0.0,3.0,4.0
160,徐家汇公园,公园,31.203746,121.448859,00:00,24:00,0.0,1.0,2.0
161,古猗园,公园,31.297989,121.3229,07:00,19:30,0.0,1.0,1.5
162,上海上引+,商业街区,31.261345,121.476012,00:00,24:00,0.0,1.5,3.0
163,虹桥丽宝广场,商业街区,31.201474,121.316912,10:00,22:00,0.0,1.5,3.0
164,梦回大唐古风沉浸式乐园,游乐园/体育娱乐,31.202925,121.316649,13:00,22:00,468.0,1.0,2.5
165,韩国街,商业街区,31.174888,121.379892,17:00,23:00,0.0,1.0,1.5
166,上海野生动物园-车入区,游乐园/体育娱乐,31.062288,121.729586,09:15,16:30,0.0,2.0,3.0
167,ORIENS LUMINA焕光森林•东方曦望,游乐园/体育娱乐,30.946494,121.491888,19:00,22:00,119.0,0.5,1.5
168,消失的法老—胡夫金字塔沉浸式探索体验展,博物馆/纪念馆,31.234902,121.46938,10:00,22:00,0.0,1.5,3.0
169,新场古镇,历史古迹,31.031093,121.652503,00:00,24:00,0.0,2.0,3.0
170,西岸美术馆,美术馆/艺术馆,31.173704,121.47021,10:00,20:00,100.0,1.0,2.0
171,东昌路渡口,人文景观,31.235723,121.510071,07:30,21:00,0.0,2.0,3.5
172,上海国际邮轮节,游乐园/体育娱乐,31.239546,121.419159,00:00,24:00,0.0,0.5,1.0
173,上海天文博物馆,博物馆/纪念馆,31.100782,121.199571,00:00,24:00,0.0,0.5,2.0
174,国际马戏剧场,游乐园/体育娱乐,31.062304,121.725605,09:00,17:00,50.0,1.0,1.5
175,上海世博展览馆,博物馆/纪念馆,31.188398,121.496501,09:00,17:00,0.0,0.5,1.0
176,上海大世界,游乐园/体育娱乐,31.23433,121.485875,11:00,23:00,60.0,1.5,2.0
177,海底世界馆,游乐园/体育娱乐,30.917797,121.913352,09:30,17:30,0.0,2.5,3.0
178,川沙古镇,历史古迹,31.202471,121.712141,00:00,24:00,0.0,0.5,1.0
179,豫园星空梦幻馆,游乐园/体育娱乐,31.23444,121.497437,10:00,21:30,49.9,0.5,1.0
180,云上海洋馆,游乐园/体育娱乐,31.105447,121.420467,09:00,18:00,130.0,2.0,2.5
181,广富林水下博物馆,博物馆/纪念馆,31.068785,121.204291,09:00,16:30,0.0,1.0,2.0
182,张爱玲故居,历史古迹,31.231097,121.454042,00:00,24:00,0.0,2.0,2.5
183,米奇大街,商业街区,31.148023,121.668048,08:30,20:00,0.0,0.5,1.5
184,莫奈花园,公园,31.058645,121.51431,09:00,21:00,0.0,1.0,2.0
185,天马山公园,公园,31.081471,121.15945,08:30,17:00,10.0,1.5,2.0
186,上海公安博物馆,博物馆/纪念馆,31.204437,121.474777,09:00,16:30,0.0,0.5,1.5
187,浦发银行东方体育中心,游乐园/体育娱乐,31.161852,121.48398,09:00,22:00,0.0,1.0,2.0
188,上海图书馆(东馆),博物馆/纪念馆,31.226151,121.553598,13:30,20:30,0.0,0.5,1.5
189,喜玛拉雅美术馆,美术馆/艺术馆,31.215181,121.568386,10:00,18:00,0.0,1.0,2.0
190,上海外滩星空艺术馆,美术馆/艺术馆,31.241345,121.48198,10:00,22:00,59.9,0.5,1.0
191,上海·蓝人秀,游乐园/体育娱乐,31.205681,121.430239,14:30,15:50,280.0,2.0,3.0
192,花开海上生态园,公园,30.891863,121.122985,08:00,17:00,29.0,2.0,3.0
193,上海国际赛车场,游乐园/体育娱乐,31.343329,121.231754,09:00,16:00,0.0,2.0,3.0
194,韩湘水博园,游乐园/体育娱乐,30.990344,121.335785,08:00,20:00,29.9,1.5,2.0
195,长兴岛郊野公园,公园,31.406121,121.720774,08:30,17:00,0.0,3.0,4.0
196,张园,公园,31.234639,121.467292,10:00,22:00,0.0,1.0,2.0
197,广富林考古遗址展示馆,博物馆/纪念馆,31.068863,121.203461,09:00,17:00,30.0,1.5,3.0
198,课植园,公园,31.11952,121.059973,08:30,16:30,54.0,2.0,2.5
199,鹏新嘉定海洋世界,游乐园/体育娱乐,31.334285,121.280437,09:00,17:30,118.0,0.5,1.5
200,上海船厂滨江绿地,公园,31.249924,121.513583,00:00,24:00,0.0,1.0,2.0
201,汽车博览公园,公园,31.28468,121.18023,08:00,17:00,0.0,0.5,2.0
202,沙美大楼,商业街区,31.24661,121.493144,00:00,24:00,0.0,1.0,2.0
203,世博文化公园,公园,31.187285,121.483719,00:00,24:00,0.0,1.0,2.5
204,申园,公园,31.188835,121.488794,09:00,17:00,30.0,1.0,2.0
205,纸片楼,人文景观,31.2441,121.486294,00:00,24:00,0.0,3.0,4.0
206,石库门老街,人文景观,31.224818,121.512639,00:00,24:00,0.0,0.5,1.0
207,上海万达汽车乐园,游乐园/体育娱乐,31.139768,121.089231,00:00,24:00,98.0,0.5,1.0
208,上海鲜花港,公园,30.950741,121.909087,08:00,17:00,45.0,0.5,1.0
209,外滩源,商业街区,31.246211,121.495876,00:00,24:00,0.0,2.0,3.0
210,北外滩滨江绿地,公园,31.253507,121.507602,00:00,24:00,0.0,0.5,1.0
211,南浦大桥,游乐园/体育娱乐,31.211022,121.512356,00:00,24:00,0.0,0.5,1.0
212,老上海1930风情街,商业街区,31.237426,121.482317,08:00,22:00,0.0,2.0,3.5
213,上海悬空玻璃艺术馆,美术馆/艺术馆,31.242452,121.490272,10:00,22:00,39.8,0.5,1.5
214,孙中山故居纪念馆,博物馆/纪念馆,31.222108,121.474213,09:00,16:30,0.0,2.0,3.0
215,叙宴（上海旗舰店）,商业街区,31.300401,121.465053,10:00,21:00,0.0,1.5,2.0
216,巨鹿路,商业街区,31.225679,121.456432,00:00,24:00,0.0,2.0,2.5
217,黑色博物馆BLACK MUSEUM,博物馆/纪念馆,31.250946,121.463138,10:30,21:00,76.0,0.5,1.5
218,上海宝山寺,历史古迹,31.42497,121.350799,07:00,16:00,0.0,2.5,4.0
219,“蓝森号”黄浦江游轮,游乐园/体育娱乐,31.23121,121.507953,19:00,21:00,0.0,1.0,1.5
220,季高兔窝窝PANCOAT乐园,游乐园/体育娱乐,31.106415,121.214247,00:00,24:00,128.0,0.5,1.0
221,长乐路,商业街区,31.221933,121.451391,00:00,24:00,0.0,2.0,2.5
222,复旦大学,大学校园,31.302386,121.506024,09:00,11:30,0.0,0.5,2.0
223,广富林郊野公园,公园,31.074869,121.186543,00:00,24:00,0.0,0.5,1.0
224,乍浦路桥,人文景观,31.250207,121.494394,00:00,24:00,0.0,2.0,3.5
225,钟书阁(松江泰晤士小镇店),人文景观,31.040223,121.201441,09:00,18:00,0.0,2.0,3.0
226,上海图书馆,博物馆/纪念馆,31.213841,121.451117,13:30,20:30,0.0,2.0,3.5
227,上海体育场,游乐园/体育娱乐,31.188228,121.449391,10:00,22:00,0.0,1.5,2.0
228,探险岛,游乐园/体育娱乐,31.149516,121.669498,08:30,20:30,0.0,1.0,2.5
229,百诺巧克力博物馆,博物馆/纪念馆,31.327338,121.395568,10:00,17:30,0.0,3.0,3.5
230,上海失恋博物馆,博物馆/纪念馆,31.242423,121.490209,10:00,21:30,29.9,2.0,2.5
231,鲁迅纪念馆,博物馆/纪念馆,31.275502,121.490446,09:00,17:00,0.0,1.0,2.0
232,枫叶岛,游乐园/体育娱乐,30.782364,121.181984,00:00,24:00,0.0,2.5,3.0
233,云起美术馆,美术馆/艺术馆,31.255383,121.451924,10:30,21:00,0.0,1.0,1.5
234,上海青少年科技探索馆,博物馆/纪念馆,31.212704,121.46963,12:00,16:00,0.0,1.0,2.5
235,崇明岛国家地质公园,公园,31.732695,121.237953,08:30,16:00,0.0,2.0,3.5
236,黄浦江•东方明珠炫游浦江主题游船,游乐园/体育娱乐,31.246287,121.503541,15:00,21:30,0.0,1.5,3.0
237,徐家汇观象台(上海气象博物馆),博物馆/纪念馆,31.196521,121.442585,10:00,11:00,0.0,1.0,1.5
238,上海地铁博物馆,博物馆/纪念馆,31.175396,121.373109,10:00,16:00,0.0,2.5,3.0
239,多伦路文化名人街,文化旅游区,31.268088,121.488352,00:00,24:00,0.0,1.0,2.0
240,北外滩国客中心沙滩嘉年华,游乐园/体育娱乐,31.254214,121.51123,00:00,24:00,0.0,2.0,2.5
241,幻境空间超级元宇宙(上海店),游乐园/体育娱乐,31.249984,121.478697,10:00,22:00,59.9,2.5,4.0
242,snh48星梦剧院,人文景观,31.262448,121.49699,10:00,21:00,0.0,1.0,2.0
243,上海漫画博物馆,博物馆/纪念馆,31.217965,121.618432,10:00,16:30,0.0,3.0,4.0
244,上海昆虫博物馆,博物馆/纪念馆,31.199921,121.461708,09:00,16:30,0.0,2.5,3.0
245,上海旅游节,商业街区,31.235929,121.48054,00:00,24:00,0.0,2.0,3.0
246,上海潜艇展览馆,博物馆/纪念馆,31.200446,121.495276,09:30,16:00,0.0,1.0,2.0
247,百乐门,商业街区,31.229994,121.450584,18:00,23:59,0.0,1.5,3.0
248,浦东开发陈列馆,博物馆/纪念馆,31.244983,121.520515,09:00,11:30,0.0,2.0,3.5
249,南汇沙滩,自然风光,30.871676,121.945727,00:00,24:00,0.0,2.5,4.0
250,寒山寺,历史古迹,31.629515,121.4088,08:00,16:30,0.0,1.0,2.0
251,淀山湖风景区,自然风光,31.135379,121.019202,00:00,24:00,0.0,0.5,1.0
252,上海名人蜡像馆,博物馆/纪念馆,31.267395,121.21925,09:00,18:00,50.0,3.0,3.5
253,北大街,商业街区,31.116898,121.061703,00:00,24:00,0.0,0.5,1.0
254,交通银行耀雪冰雪世界,游乐园/体育娱乐,30.925586,121.911952,00:00,24:00,90.0,0.5,1.0
255,顾村公园自然谷恐龙乐园,游乐园/体育娱乐,31.348987,121.380376,09:00,17:00,0.0,1.0,1.5
256,人民公园,公园,31.238252,121.479656,05:00,21:00,0.0,0.5,1.5
257,上海交通大学,大学校园,31.205239,121.442301,00:00,17:00,0.0,3.0,3.5
258,上海航宇科普中心,博物馆/纪念馆,31.1424,121.41262,09:00,16:00,0.0,2.0,3.0
259,闵行博物馆,博物馆/纪念馆,31.166612,121.365672,09:30,16:30,0.0,2.0,2.5
260,超体空间SoReal VR（迪士尼小镇店）,游乐园/体育娱乐,31.144428,121.669451,10:00,21:30,0.0,0.5,1.0
261,青西郊野公园,公园,31.064508,121.014809,08:30,16:30,0.0,0.5,1.0
262,超级时空魔方（元宇宙体验馆上海宝山区店）,游乐园/体育娱乐,31.334079,121.464601,10:00,22:00,128.0,2.5,3.0
263,上海欢乐谷蹦极滑索,游乐园/体育娱乐,31.102078,121.224459,09:30,18:00,0.0,2.0,3.5
264,静安公园,公园,31.228471,121.453099,06:00,21:00,0.0,2.0,3.0
265,汽车博物馆·MAGIC MOTOWN 摩都,博物馆/纪念馆,31.284672,121.176677,09:30,16:30,0.0,1.5,2.0
266,吴淞炮台湾湿地森林公园,公园,31.402877,121.514813,00:00,17:00,0.0,0.5,1.5
267,梦幻世界(上海迪士尼乐园店),游乐园/体育娱乐,31.150738,121.666337,08:30,21:30,0.0,2.0,3.0
268,闻道园,文化旅游区,31.44298,121.359567,09:00,17:00,40.0,2.0,3.5
269,朵云书院(广富林店),文化旅游区,31.069046,121.203457,00:00,17:00,0.0,1.0,1.5
270,国际乒联博物馆和中国乒乓球博物馆,博物馆/纪念馆,31.198924,121.487789,09:00,17:00,0.0,2.0,2.5
271,上海淞沪抗战纪念公园,红色景点,31.415163,121.500637,00:00,24:00,0.0,3.0,3.5
272,淞沪抗战纪念馆,博物馆/纪念馆,31.415107,121.500624,09:00,11:00,0.0,2.0,3.5
273,上海当代艺术馆,美术馆/艺术馆,31.23735,121.479416,13:30,21:30,0.0,0.5,1.0
274,SAGA光明之城,游乐园/体育娱乐,31.173453,121.433262,11:00,14:00,0.0,0.5,2.0
275,醉白池,公园,31.007731,121.237508,06:00,17:00,0.0,3.0,3.5
276,涟泉大江户(上海莘庄店),游乐园/体育娱乐,31.11078,121.368643,00:00,24:00,0.0,2.0,3.5
277,世界技能博物馆,博物馆/纪念馆,31.261884,121.547888,09:00,17:00,0.0,2.0,3.0
278,川沙公园,公园,31.197175,121.707521,05:00,21:00,0.0,2.0,3.0
279,中国证券博物馆,博物馆/纪念馆,31.249773,121.497475,09:30,16:00,0.0,0.5,2.0
280,致敬大师・毕加索艺术中心,美术馆/艺术馆,31.234579,121.455322,10:00,20:00,0.0,1.0,2.5
281,滨江大道,人文景观,31.390415,121.535113,00:00,24:00,0.0,1.0,1.5
282,中共二大会址纪念馆,红色景点,31.230429,121.473376,09:00,16:30,0.0,1.0,2.0
283,州桥老街,商业街区,31.389981,121.257881,00:00,24:00,0.0,2.5,4.0
284,沉香阁,历史古迹,31.232889,121.496675,07:00,16:00,0.0,2.0,3.0
285,上海东方地质科普馆,博物馆/纪念馆,31.183841,121.789604,08:30,16:30,59.0,1.5,3.0
286,上海之鱼,游乐园/体育娱乐,30.938062,121.505771,00:00,24:00,0.0,0.5,1.0
287,陆家嘴空中步行连廊,商业街区,31.243355,121.506915,10:00,22:00,0.0,0.5,1.0
288,EVA初号机,游乐园/体育娱乐,31.296937,121.448241,00:00,24:00,0.0,1.5,2.0
289,中国兵器博览馆,博物馆/纪念馆,31.109638,121.024908,08:30,16:30,0.0,1.0,2.0
290,大韩民国临时政府旧址,红色景点,31.223228,121.481232,13:30,17:00,0.0,3.0,3.5
291,上海铁路博物馆,博物馆/纪念馆,31.255904,121.482822,09:00,11:00,0.0,1.5,2.0
292,横沙岛,自然风光,31.342956,121.860605,00:00,24:00,0.0,1.0,2.0
293,上海外滩12号大楼,商业街区,31.241686,121.496486,00:00,24:00,0.0,2.5,3.0
294,浦东机场博物馆,博物馆/纪念馆,31.153171,121.818661,00:00,24:00,0.0,2.5,4.0
295,田子坊石库门,人文景观,31.214837,121.475066,00:00,24:00,0.0,0.5,1.0
296,青溪老街,商业街区,30.929657,121.589217,00:00,24:00,0.0,1.0,2.0
297,月湖雕塑公园,公园,31.107223,121.211287,09:00,17:30,95.0,1.0,2.0
298,上海惊魂密境,游乐园/体育娱乐,31.242463,121.490052,13:00,21:00,0.0,3.0,4.0
299,古镇泗泾,历史古迹,31.116784,121.281447,00:00,24:00,0.0,1.5,2.0
300,复兴公园,公园,31.222944,121.475676,00:00,21:00,0.0,3.0,4.0
301,九曲桥,人文景观,31.232454,121.49844,00:00,24:00,0.0,0.5,1.0
302,金山嘴渔村,文化旅游区,30.738368,121.382644,09:00,16:30,32.0,2.0,3.0
303,吴淞口,历史古迹,31.394524,121.524691,00:00,24:00,0.0,0.5,1.5
304,龙美术馆(西岸馆),美术馆/艺术馆,31.190301,121.471366,10:00,18:00,0.0,3.0,4.0
305,徐家汇源,文化旅游区,31.197389,121.442952,00:00,24:00,0.0,3.0,4.0
306,上海国际光影节,游乐园/体育娱乐,31.235929,121.48054,00:00,24:00,0.0,2.0,3.0
307,上生新所,商业街区,31.214957,121.434002,00:00,24:00,0.0,1.0,2.0
308,上海隧道科技馆,博物馆/纪念馆,31.22704,121.506146,13:00,16:30,0.0,3.0,3.5
309,徐汇滨江绿地,公园,31.187552,121.470436,00:00,24:00,0.0,2.0,3.0
310,黄河路,商业街区,31.239658,121.477786,00:00,24:00,0.0,1.0,2.0
311,秋霞圃,人文景观,31.392447,121.259405,08:00,16:30,0.0,0.5,1.5
312,老码头,人文景观,31.225078,121.512289,00:00,24:00,0.0,2.0,3.0
313,上海话剧艺术中心,人文景观,31.220075,121.447556,09:30,21:00,0.0,1.5,3.0
314,复星艺术中心,美术馆/艺术馆,31.231433,121.503856,10:00,20:00,0.0,0.5,1.0
315,中国银行,商业街区,31.245194,121.496402,09:00,17:00,0.0,2.5,3.0
316,四季冰雪乐园,游乐园/体育娱乐,31.154745,121.232464,10:00,20:00,128.0,0.5,1.5
317,飞跃上海(南京路步行街来福士店),商业街区,31.238296,121.482792,10:00,22:00,48.9,2.5,3.0
318,建筑模型博物馆,博物馆/纪念馆,31.299959,121.44508,00:00,24:00,0.0,1.5,3.0
319,观光夜市(威尼斯水城之夜),商业街区,31.237107,121.384313,00:00,24:00,0.0,2.5,4.0
320,大宁公园,公园,31.282174,121.449785,05:00,22:00,0.0,0.5,1.0
321,前滩休闲公园,公园,31.156611,121.471909,00:00,19:00,0.0,1.0,2.5
322,太阳岛沙滩,游乐园/体育娱乐,31.037458,121.089377,10:00,20:00,119.0,3.0,3.5
323,魔都360°球幕宇宙探索馆,游乐园/体育娱乐,30.949114,121.464179,10:00,18:00,78.0,1.0,2.5
324,水域探秘,自然风光,31.061121,121.728328,09:00,17:00,48.0,1.5,2.0
325,临港星空之境海绵公园,公园,30.920956,121.938646,13:00,21:00,0.0,1.0,2.0
326,沐屿新集,商业街区,31.278359,121.473842,00:00,24:00,0.0,0.5,1.5
327,上海消防博物馆,博物馆/纪念馆,31.224259,121.417761,09:30,11:30,0.0,1.0,2.0
328,马登仓库旧址,历史古迹,31.257081,121.520069,00:00,24:00,0.0,1.0,2.5
329,天时632艺术空间(上海中心大厦店),美术馆/艺术馆,31.239175,121.511884,08:55,21:45,0.0,0.5,1.0
330,X-META·风起洛阳·沉浸式全感VR·元宇宙主题乐园,游乐园/体育娱乐,31.236645,121.476031,10:00,22:00,0.0,0.5,1.0
331,中国近现代新闻出版博物馆,博物馆/纪念馆,31.284746,121.549762,09:00,17:00,0.0,2.0,3.5
332,瀛东村,文化旅游区,31.469472,121.849825,07:30,16:30,38.0,0.5,1.5
333,毛泽东旧居,红色景点,31.23244,121.466975,09:00,11:30,0.0,3.0,4.0
334,奉贤渔人码头,人文景观,30.819689,121.526715,00:00,24:00,0.0,2.0,2.5
335,生命的纪元 Life Chronicles,其它,31.234872,121.469607,10:00,22:00,238.0,3.0,3.5
336,Bright Land 耀心岛-亲子乐园,游乐园/体育娱乐,31.154384,121.231757,10:00,18:00,90.0,1.0,2.0
337,动吧donbar（陆家嘴旅游环线）,游乐园/体育娱乐,31.235712,121.509858,09:00,20:30,29.8,0.5,2.0
338,圣三一堂,历史古迹,31.242438,121.492776,00:00,24:00,0.0,2.5,4.0
339,同济大学(四平路校区),大学校园,31.289067,121.510461,07:30,22:30,0.0,2.5,4.0
340,方塔园,公园,31.010392,121.253011,06:00,17:00,12.0,1.5,2.0
341,上海纺织博物馆,博物馆/纪念馆,31.253092,121.452367,09:30,16:00,0.0,2.0,3.0
342,独角兽星空艺术馆 田子坊旗舰店,美术馆/艺术馆,31.213178,121.474726,10:00,22:00,59.9,3.0,3.5
343,静安体育中心,游乐园/体育娱乐,31.297901,121.459688,13:00,21:00,0.0,1.0,2.5
344,四川北路公园,公园,31.260594,121.491375,00:00,24:00,0.0,2.5,3.0
345,中共四大纪念馆,红色景点,31.260904,121.4915,09:00,11:30,0.0,0.5,1.0
346,久事体育旗忠网球中心,游乐园/体育娱乐,31.044809,121.362934,08:00,20:00,335.0,0.5,1.5
347,世纪广场,商业街区,31.226354,121.548604,00:00,24:00,0.0,1.0,1.5
348,松江梦幻水世界,游乐园/体育娱乐,31.068017,121.165801,00:00,24:00,0.0,3.0,4.0
349,西岸艺术中心,美术馆/艺术馆,31.173709,121.469267,09:00,20:00,0.0,1.0,2.5
350,得丘礼享谷文创园,文化旅游区,31.083361,121.378137,09:30,20:00,0.0,1.0,1.5
351,老外街101,商业街区,31.196743,121.392218,00:00,24:00,0.0,3.0,4.0
352,奉贤博物馆,博物馆/纪念馆,30.939284,121.509324,09:00,16:30,0.0,2.0,3.0
353,金泽镇,历史古迹,31.041805,120.928882,00:00,24:00,0.0,2.0,3.5
354,罗密欧阳台,人文景观,31.215746,121.446986,00:00,24:00,0.0,2.5,3.0
355,魔都悬空玻璃剧场,人文景观,31.213146,121.474166,10:00,22:00,49.9,2.0,3.0
356,朱家角大清邮局,历史古迹,31.113177,121.060143,10:00,18:00,0.0,3.0,3.5
357,上海体育馆（上海大舞台）,游乐园/体育娱乐,31.187832,121.444768,09:00,19:30,0.0,2.0,2.5
358,刘海粟美术馆,美术馆/艺术馆,31.215732,121.425587,09:00,17:00,0.0,0.5,1.0
359,白玉兰广场,商业街区,31.401613,121.494764,10:00,22:00,0.0,1.0,2.5
