id,name,hotelname_en,featurehoteltype,lat,lon,price,numbed
0,重庆清阅·OneJasper精选酒店,Qingyue OneJasper select Hotel,管家服务,29.538263,106.51261,291,1
1,重庆美利亚酒店,Melia Chongqing,泳池,29.600078,106.681531,566,2
2,重庆雾都宾馆,Wudu Hotel,泳池,29.564909,106.551346,421,1
3,重庆渝商国际大酒店,Yushang International Hotel,免费停车,29.617377,106.519009,422,1
4,重庆世纪金源大饭店,Chongqing Empark Grand Hotel,免费停车,29.574811,106.529797,399,1
5,重庆北站亚朵酒店,Chongqing North Railway Station Atour Hotel,免费停车,29.603878,106.553201,332,2
6,重庆君豪大饭店,King World Hotel,泳池,29.559289,106.527161,357,2
7,重庆沙磁公馆,Such Mansion,管家服务,29.579584,106.454819,378,1
8,重庆华辰国际大酒店,HC International Hotel,湖景房,29.705983,106.611381,336,1
9,重庆两江假日酒店,River & Holiday  Hotel ChongQing,管家服务,29.583068,106.527963,441,2
10,重庆解放碑洪崖洞江景亚朵S酒店,Chongqing Jiefangbei Hongyadong  river view Atour s Hotel,动人夜景,29.561356,106.573953,429,1
11,朗丽兹酒店(重庆南滨路圣地温泉店),Palace Hotels (Chongqing Nanbin Road Holy Land Hot Spring Branch),温泉泡汤,29.539985,106.582452,382,2
12,重庆观音桥华美达安可酒店,Ramada Encore by Wyndham Chongqing Yubei,SPA,29.589353,106.533117,307,1
13,重庆万垚酒店,Chongqing Wanyao Hotel,家庭房,29.528644,106.576643,399,1
14,重庆铜梁天喜大酒店,The  grand Tianxi  plaza chong qing,免费停车,29.836587,106.080117,324,2
15,麗枫酒店(重庆悦来国际博览中心中央公园店),Lavande Hotel (Chongqing Yuelai International Expo Center Central Park),窗外好景,29.722563,106.577262,245,1
16,仙女山中科依云酒店,Zhongke Yiyun Hotel,泳池,29.419497,107.759671,370,2
17,重庆仙女山明宇尚雅酒店,Galaxy Minyoun Hotel,山景房,29.406302,107.768157,345,1
18,重庆威灵顿酒店,Wellington Hotel,管家服务,29.610207,106.519735,462,2
19,重庆上邦酒店,Sun Kingdom Hotel Chongqing,泳池,29.492403,106.295199,368,2
20,重庆南岸茶园新区亚朵酒店,"Atour Hotel, Nan'an Tea Garden New District, Chongqing",家庭房,29.513985,106.660125,350,2
21,重庆解放碑美居酒店,Mercure Hotel Chongqing Jiefangbei,江河景房,29.555306,106.577444,396,1
22,重庆来住·千寻空中酒店,Laizhu Qianxun Sky Hotel,动人夜景,29.557624,106.582099,390,1
23,FunGee欢致江景酒店(重庆洪崖洞解放碑步行街店),FunGee Riverview Hotel (Chongqing Hongyadong Jiefangbei Pedestrian Street),江河景房,29.561224,106.573207,358,1
24,S·island高空江景酒店(重庆解放碑洪崖洞店),S · island High Altitude River View Hotel,管家服务,29.556026,106.57641,334,2
25,Aspera高空花园全景酒店(解放碑洪崖洞店),ASPERA HIGH-ALTITUDE GARDEN PANORAMIC HOTEL,免费停车,29.559912,106.580112,348,1
26,重庆解放碑亚朵酒店,Atour Hotel (Chongqing Jiefangbei),免费停车,29.552169,106.57637,382,1
27,重庆恒大酒店,Hengda Hotel,泳池,29.424455,106.262405,289,1
28,鑫山酒店·King Shinning(重庆解放碑洪崖洞店),Xinshan Hotel King Shinning (Chongqing Jiefangbei Hongyadong Shop),江河景房,29.55514,106.579401,279,1
29,Asiam亚美国际酒店(重庆解放碑洪崖洞店),Asiam International Hotel Chongqing Jiefangbei Hongya Cave,江河景房,29.555141,106.57941,338,1
30,重庆国贸格兰维大酒店,Glenview ITC PLAZA Chongqing,泳池,29.5562,106.573796,509,1
31,罗斯福服务公寓(重庆解放碑洪崖洞店),Roosevelt Service Apartment (Chongqing Jiefangbei Hongyadong Branch),窗外好景,29.554231,106.578484,349,1
32,重庆解放碑来福士广场江景亚朵酒店,"Atour Hotel (Chongqing Jiefangbei, Raffles Plaza, Riverview)",免费停车,29.560725,106.584164,385,1
33,重庆凯宾斯基酒店,Kempinski Hotel Chongqing,泳池,29.534982,106.561369,538,2
34,重庆尼依格罗酒店,Niccolo Chongqing,动人夜景,29.575798,106.573186,1029,2
35,重庆两江豪生Life酒店,Howard Johnson Life Chongqing,影音房,29.608514,106.525443,418,1
36,重庆熙美酒店,Chongqing Ximei Hotel,免费停车,29.718793,106.602827,427,1
37,重庆来福士洲际酒店,InterContinental Chongqing Raffles City,桑拿,29.565669,106.587901,1502,2
38,MOUNTWELL·山栖行政套房酒店(解放碑洪崖洞店),Mountwell Executive Suites (Jiefangbei Hongyadong),江河景房,29.554624,106.578081,398,1
39,重庆滨乐·宝轩酒店,Binle Hotel,桑拿,29.644627,106.568776,476,2
40,Freely智能江景酒店(重庆江北嘴金融城店),Freely Smart Riverview Hotel (Chongqing Jiangbeizui Financial City Store),江河景房,29.57026,106.562753,236,1
41,重庆丽思瑞凯悦臻选酒店,"The Lixury Hotel Chongqing, in The Unbound Collection by Hyatt",动人夜景,29.558967,106.57789,1112,1
42,重庆渝州宾馆,Yuzhou Hotel,泳池,29.529172,106.504552,1033,1
43,重庆南岸希尔顿惠庭酒店,Home2 Suites by Hilton Chongqing Nan'an,免费停车,29.529466,106.56863,328,2
44,重庆喜来登大酒店,Sheraton Chongqing Hotel,桑拿,29.543281,106.586925,608,1
45,重庆南滨路万达安柏酒店,Wanda Amber Hotel,江河景房,29.543097,106.585527,456,1
46,重庆丽晶酒店,Regent Chongqing,动人夜景,29.571168,106.570692,1334,1
47,重庆北碚悦榕庄,Banyan Tree Chongqing Beibei,温泉泡汤,29.85638,106.380304,1480,1
48,仙女山天怡芳草地度假酒店,Tianyi Fangcaodi Holiday Hotel,山景房,29.43637,107.768976,482,1
49,重庆涪陵金科大酒店,Fuling Jinke Hotel,山景房,29.711322,107.40078,488,2
50,重庆洪崖洞江景亚朵酒店,Atour Hotel (Chongqing Hongyadong Jiangjing ),免费停车,29.561635,106.577985,394,2
51,浮尘高空酒店(重庆解放碑步行街店),Fuchen Gaokong Hotel (Chongqing Jiefangbei Pedestrian Street),管家服务,29.55788,106.578179,298,1
52,重庆柏联酒店,Bolian Resorts & Spa Chongqing,窗外好景,29.857164,106.416437,3990,2
53,重庆大都会凯悦酒店,Hyatt Regency Metropolitan Chongqing,桑拿,29.556522,106.578666,647,1
54,重庆皇冠国际江景亚朵S酒店,Atour S Hotel (Chongqing Huangguan International Riverview),免费停车,29.543447,106.585602,394,1
55,重庆雅诗阁来福士服务公寓,Ascott Raffles City Chongqing,桑拿,29.564785,106.588312,665,2
56,重庆维景国际大酒店,Grand Metropark Hotel Chongqing,桑拿,29.677001,106.566561,441,1
57,重庆天地网易云音乐亚朵酒店,Chongqing Tiandi Netease Cloud Music Atour Hotel,免费停车,29.552882,106.508433,412,1
58,重庆山前宋品酒店,SONG HOTEL CHONGQING,泳池,29.636063,106.359111,1531,2
59,重庆解放碑威斯汀酒店,The Westin Chongqing Liberation Square,Boss推荐,29.556739,106.580112,1050,1
60,重庆金科大酒店,Chongqing Jinke Grand Hotel,泳池,29.649617,106.526544,757,2
61,重庆解放碑博斯嘉酒店,"Boska Hotel Monument to the people's Liberation, Chongqing",儿童俱乐部,29.554624,106.578081,369,2
62,重庆W PLUS HOTEL,W PLUS HOTEL,免费停车,29.559814,106.594812,458,1
63,缇·酒店,Hotel-T,免费停车,29.616871,106.480399,349,1
64,重庆融创施柏阁酒店,Steigenberger Chogqing,泳池,29.635156,106.363169,620,1
65,重庆丽笙世嘉酒店,Radisson Blu Plaza Chongqing,动人夜景,29.539687,106.566065,608,1
66,杰夫杰夫高空江景酒店(重庆北滨路鎏嘉码头店),Jeff Jeff Hotel (Chongqing Beibin Road Liujia Wharf),管家服务,29.570863,106.558867,249,1
67,麗枫酒店(重庆两江幸福广场店),Lavande Hotel (Chongqing Liangjiang Xingfu Plaza),免费停车,29.616916,106.502737,320,1
68,重庆观音桥希尔顿欢朋酒店,Hampton by Hilton,免费停车,29.583867,106.530251,438,1
69,重庆沙坪坝高铁站三峡广场亚朵酒店,Atour Hotel,免费停车,29.558913,106.467437,368,2
70,红墣假日江景酒店(重庆洪崖洞解放碑步行街店),Hongyan Holiday Riverview Hotel (Chongqing Jiefangbei Hongyadong Branch),充电桩,29.561411,106.57327,316,1
71,重庆解放碑步行街亚朵X酒店,Atour Hotel,免费停车,29.549589,106.575786,350,2
72,宽融全套房酒店(重庆江北源著店),Kuanrong All Suite Hotel (Chongqing Jiangbei Yuanzhu),酒店公寓,29.603119,106.483446,352,2
73,格美·城市庭院花园酒店(重庆解放碑步行街洪崖洞店),Gemei City Courtyard Garden Hotel (Chongqing Jiefangbei Pedestrian Street Hongyadong Branch),家庭房,29.555849,106.573164,273,1
74,重庆翰文大酒店,C Plaza Hotel,泳池,29.560533,106.564245,503,1
75,格雷斯精选酒店(重庆江北嘴金融城店),Grace Collection Hotel (Chongqing Jiangbeizui Financial City),免费停车,29.578535,106.562353,345,1
76,重庆朴乡金佛山度假酒店,PUSHINE,SPA,29.079259,107.207203,2088,1
77,宽融全套房酒店(重庆观音桥店),Kuanrong Suites Hotel (Chongqing Guanyinqiao),酒店公寓,29.582236,106.527349,347,2
78,桔子水晶重庆观音桥酒店,Orange Crystal Hotel (Chongqing Guanyinqiao Branch),免费停车,29.59018,106.535957,405,2
79,重庆千合日善高空江景酒店,Qianhe Rishan River View Hotel,酒店公寓,29.557489,106.582351,309,2
80,仙女山华邦酒店,Fairy Mountain Huapont Hotel,山景房,29.509144,107.750695,812,2
81,曼庚公馆,MANQUE,窗外好景,29.550697,106.593372,2722,1
82,重庆银鑫世纪酒店,Yinxin Century Hotel,湖景房,29.681661,106.606845,965,2
83,仙女山拙雅酒店,The Joya Hotel,管家服务,29.508083,107.748553,1388,2
84,慕思·禅睡眠酒店(重庆磁器口地铁站店),DeRucci Hotel (Chongqing Ciqikou Metro Station Store),免费停车,29.578007,106.446748,343,1
85,重庆欧瑞大酒店,Ourui Hotel,泳池,29.607379,106.504726,498,2
86,宽融全套房酒店(重庆时代天街D馆店),Le Comforto All Suite Hotel (Chongqing Paradise Walk D),多功能厅,29.533058,106.512601,419,2
87,重庆壹棠酒店公寓,Chongqing Yitang Hotel Apartment,酒店公寓,29.631298,106.575149,327,1
88,重庆陆海国际Pagoda君亭设计酒店,Pagoda Hotel Chongqing International  Land-sea,家庭房,29.550566,106.518479,519,1
89,YIAN伊岸高空江景酒店(重庆解放碑云端之眼店)),Yianhotel,家庭房,29.557301,106.582166,428,1
90,重庆汽博奥特莱斯亚朵酒店,Chongqing Auto Bo Outlet Atour Hotel,免费停车,29.641606,106.592414,376,2
91,重庆珠江豪生酒店,Howard Johnson Zhujiang Hotel Chongqing,江河景房,29.571123,106.558783,663,2
92,东方蔚莱酒店(重庆新牌坊店),Oriental Velky Hotel (Chongqing Xinpaifang Branch),免费停车,29.599513,106.528291,312,1
93,重庆大世界君亭酒店(解放碑洪崖洞店),SSAW BOUTIQUE HOTEL DASHIJIE CHONGQING,家庭房,29.55858,106.574827,363,1
94,重庆璞悦•空中花园酒店,Puyue Hotel,智能客控,29.535561,106.511716,310,1
95,重庆浅憩In酒店,Qianqi In Hotel,免费停车,29.54286,106.58241,355,1
96,重庆金佛山良瑜国际度假酒店,Chongqing Jinfoshan Liangyu International Resort,泳池,29.030396,107.103168,778,2
97,YES野式酒店·重庆,THE  YES  Hotel,免费停车,29.507464,106.493339,288,2
98,金山江悦酒店,Jinshan Jianyue Hotel,充电桩,29.161609,107.084771,339,1
99,泊联汇别院·设计师酒店(重庆棕榈泉店),ELITE POLINK RETREAT,泳池,29.638836,106.540368,388,1
100,桔子酒店(重庆观音桥龙湖新壹街店),"Orange Hotel (Chongqing Guanyinqiao, Longhu Xinyijie)",免费停车,29.581389,106.526866,380,1
101,重庆两江新区丽呈君顿酒店,Rezen Kingtown Hotel (Chongqing Liangjiang New District),免费停车,29.666407,106.559718,446,1
102,重庆珊顿国际公寓酒店(棕榈泉国际中心店),Chongqing Shandun International Apartment Hotel Palm Springs International Center,酒店公寓,29.636831,106.541953,260,2
103,重庆华舫酒店(磁器口古镇店),Chongqing Huafang Hotel,免费停车,29.578767,106.448985,357,1
104,维也纳国际酒店(重庆中央公园店),Vienna International Hotel,免费停车,29.724086,106.570456,361,1
105,柏天酒店(沙坪坝高铁站三峡广场店),Bertian Hotel (Shapingba High Speed Railway Station Sanxia Plaza),茶室,29.558442,106.462937,363,1
106,嘉瑞酒店(重庆袁家岗地铁站店),Jia Rui Hotel (Chongqing Yuanjiagang Metro Station),免费停车,29.523249,106.513197,389,1
107,重庆江北希尔顿惠庭酒店,Home2 Suites by Hilton Chongqing Jiangbei,家庭房,29.571275,106.49538,429,1
108,SENSE SCENE三时森印酒店(重庆解放碑店),SENSE SCENE HOTEL,家庭房,29.559469,106.575534,323,1
109,重庆沙磁时光酒店,Such Time Hotel,免费停车,29.57967,106.454395,316,1
110,重庆丽呈温特莱酒店,Rezen Winterless Hotel Chongqing,机器人服务,29.524881,106.486682,360,1
111,重庆禧满鸿福酒店(蔡家地铁站店),Hilmanhomeful Hotel (Caijia Subway Station Store),免费停车,29.735534,106.495525,283,2
112,金科圣嘉酒店(解放碑洪崖洞店),Jinke Saint Hotel,充电桩,29.560134,106.580105,264,1
113,山觉·行舍(涂山寺店),Shanjue Xingshe Guesthouse,免费停车,29.550618,106.607803,446,2
114,望山栖轻奢重庆光环购物街酒店,Theme Wangshanqi Light Luxury Hotel,智能客控,29.650255,106.531301,307,2
115,天雅·雾兮高空江景花园度假酒店(解放碑来福士店),Tianya · Wuxi High Altitude river Garden Resort Hotel (Jiefangbei Raffles Store),免费停车,29.563212,106.585075,472,2
116,重庆上丁里酒店(两江幸福广场店),Chongqing Shangdingli Hotel (Chongqing Liangjiang Xingfu Square),充电桩,29.60803,106.502497,293,2
117,富廷格高空江景酒店(解放碑店),Chongqing Fortinger Hotel (Jiefangbei Branch),江河景房,29.563084,106.58598,297,1
118,泊联汇·观澜酒店(重庆微电园地铁站店),Bolianhui·Guanlan Hotel (Chongqing Microdianyuan Subway Station),家庭房,29.611222,106.360319,272,1
119,重庆永川柏天酒店,Boutin Hotel,免费停车,29.339108,105.944455,378,2
120,重庆长城酒店,Great Wall Hotel,免费停车,29.533538,106.514773,339,2
121,重庆盈田酒店,Intan Hotel,免费停车,29.639214,106.548448,298,2
122,重庆融汇上泉坊温泉酒店,Chongqing Rongghui Up-Spring Alley Hotel,棋牌室,29.543355,106.43885,285,1
123,慢屋·仙女山归原精品度假民宿,"Slow house, xiannvushan guiyuan boutique holiday home stay",民宿,29.371473,107.735068,399,2
124,重庆涪陵漫涛酒店,Chongqing Fuling Mantao Hotel,停车场,29.711221,107.377313,242,1
125,华熙LIVE·鱼洞·华熙玻尿酸酒店,HA Up Hotel,停车场,29.377989,106.509913,294,1
126,重庆千合智选高空江景酒店,Qianhe Zhixuan River View Hotel,动人夜景,29.55732,106.581643,308,2
127,重庆遇你民宿,MEET YOU,停车场,29.54232,106.632513,353,2
128,重庆柏雾酒店(南滨路店),Brave Hotel,家庭房,29.57314,106.593589,298,1
129,重庆悦磁江景花园酒店(磁器口古镇店),Yueci Hotel,免费停车,29.588673,106.446295,349,1
130,仙女山新华酒店,Xinhua Hotel Fairy Mountain,免费停车,29.483634,107.727399,359,2
131,高远凤翎酒店,FengLingHotel,免费停车,29.517408,106.344206,338,2
132,江上朗月酒店,Jiangshang Langyue Hotel,窗外好景,29.605939,106.472902,429,2
133,重庆IN BETWEEN柳杉间酒店,In Between Hotel,免费停车,28.928282,107.005006,394,1
134,重庆南山1898民宿,Chongqing Nanshan 1898 Homestay,停车场,29.557357,106.620682,410,2
135,爰居爰处民宿,Yuanju Yuanchu Homestay,免费停车,29.543037,106.633145,447,2
136,e家酒店,e Home Hotel,免费停车,29.625697,106.4673,306,1
137,红楼银杏大酒店(重庆西站),Honglou Yinxing Hotel,免费停车,29.505712,106.450364,344,2
138,伊凡酒店(重庆南坪步行街上海城店),Yifan Hotel,洗衣房,29.528706,106.560489,319,1
139,重庆东方花苑饭店,East Garden Hotel,免费停车,29.559173,106.550958,288,2
140,重庆荷和原乡民宿,Hehe Yuanxiang Hotle,免费停车,29.794865,105.993135,442,2
141,重庆曼德姆酒店,Mandemu Hotel,免费停车,29.722738,106.541658,412,1
142,花筑奢·重庆西郊雅社酒店,Floral Lux Hotel·Chongqing West Suburb Yashe Hotel,免费停车,29.822998,106.028578,420,2
143,重庆师范大学国风楼酒店,Chongqing Normal University Guofenglou Hotel,免费停车,29.610185,106.306629,398,1
144,椿山悦民宿(重庆南山店),Yueshanyue Homestay (Chongqing Nanshan Branch),免费停车,29.553885,106.629138,317,1
145,重庆Indition英迪逊高空酒店,Chongqing Indition High Altitude Hotel,私人泳池,29.563347,106.585958,626,1
146,郎玺度假酒店(重庆解放碑洪崖洞店),Langxi Resort Hotel (Chongqing Monument to the people's Liberation Hongyadong Store),家庭房,29.559988,106.580498,310,1
147,红楼长箭大酒店(重庆巴山地铁站店),HONG LOU CHANG JIAN HOTLE,家庭房,29.519664,106.465226,397,2
148,重庆嘉澜四季酒店,Jialan Siji Hotel,免费停车,29.576236,106.564011,294,2
149,东方时代酒店(重庆观音桥步行街时代中心店),APEX EAST TIMES HOTEL,行政酒廊,29.575854,106.535691,276,1
150,全季酒店(重庆万州万达广场店),Ji Hotel (Zhongqing Wanzhou Wanda Plaza),免费停车,30.814133,108.380917,315,1
151,艺龙壹棠酒店(重庆江北国际机场店),ELONG ETANG (CHONG QING  JIANG BEI INTERNATIONAL AIRPORT  HOTEL)),免费停车,29.742057,106.654158,358,2
152,重庆INSOMNIALAB·隐桑眠高空江景地标酒店,INSOMNIALAB·hotel,江河景房,29.563477,106.585946,333,1
153,重庆木溪酒店,Moci Hotel,免费停车,29.553532,106.510341,264,1
154,丽呈君顿酒店(重庆观音桥店),Rezen Kingtown Hotel (Chongqing Guanyinqiao),免费停车,29.589804,106.525058,295,1
155,悠舍S·高空全景酒店(重庆观音桥九街店),Youshe S High-altitude Panorama Hotel (Chongqing Guanyinqiao 9th Street),江河景房,29.579705,106.54157,254,1
156,重庆江津大酒店,Jiang Jin Grand Hotel,免费停车,29.270344,106.275263,279,1
157,落脚城市·海蒂花园民宿(武隆仙女山店),Unimore Heidi Garden Homestay (Wulong Fairy Mountain Branch),免费停车,29.430764,107.747614,357,1
158,麗枫酒店(重庆解放碑中心步行街店),Lavande Hotel (Chongqing Jiefangbei Center Pedestrian Street),管家服务,29.557208,106.575533,237,1
159,千合智选高空酒店(洪崖洞店),Qianhe Zhixuan Gaokong Hotel (Jiefangbei Hongyadong Branch),江河景房,29.559812,106.582407,208,2
160,洪崖叠院酒店(重庆解放碑洪崖洞店),Hongya Dieyuan Hotel (Chongqing Jiefangbei Hongyadong Branch),江河景房,29.561939,106.577084,586,2
161,七仙女民宿(仙女山店),Qixiannv Homestay (Xiannv Mountain Shop),免费停车,29.438595,107.76264,459,1
162,重庆假日江景酒店(解放碑洪崖洞店),CHONGQING HOLIDAY RIVERVIEW HOTEL,江河景房,29.561399,106.578636,198,1
163,沃林净旅酒店(重庆解放碑洪崖洞店),Walling Hotel (Chongqing Hongyadong Jiefangbei),江河景房,29.560231,106.575669,257,1
164,TheMove江景酒店(重庆解放碑洪崖洞店),The Move River View Hotel (Chongqing Jiefangbei Hongyadong),江河景房,29.556316,106.579647,156,1
165,重山什舍民宿(重庆解放碑步行街洪崖洞店),REUNION REST (Chongqing Jiefangbei Pedestrian Street Hongyadong Branch),江河景房,29.558352,106.57693,441,1
166,栖上酒店(重庆观音桥步行街店),Qishang B & B (Chongqing Guanyinqiao Pedestrian Street store),拍照出片,29.580086,106.530814,345,1
167,富诚酒店(重庆大学城店),Fucheng Hotel (Chongqing University Town),管家服务,29.601833,106.308191,344,1
168,一瓦涧民宿(重庆南滨路弹子石老街店),Yiwajian Homestay,免费停车,29.579026,106.585508,242,1
169,山觉人文美宿(南滨路长江索道店),Shanjue Humanities Meisu (Changjiang Cableway Branch),窗外好景,29.551687,106.593751,367,1
170,重庆解放碑丽呈睿轩酒店,Rezen Select  Chongqing Jiefangbei,山景房,29.555156,106.577381,229,1
171,全季酒店(重庆江北国际机场鹿山地铁站店),JI hotel (Chongqing Jiangbei International Airport Lushan subway station store),免费停车,29.719228,106.604489,339,1
172,桔子水晶重庆解放碑洪崖洞酒店,Orange Crystal Chongqing Jiefangbei Hongyadong Hotel,江河景房,29.561997,106.584913,378,1
173,无隅酒店(重庆杨家坪万象城店),WuYu Hotel (Chongqing Yangjiaping Vientiane City),充电桩,29.517828,106.519236,378,1
174,重庆宿于龙槐山院,Chongqing Suyu Longqishanyuan,免费停车,29.873014,106.93799,377,1
175,重庆嘉泊汀酒店,Chongqing Jiaboting Hotel,免费停车,29.643453,106.564621,478,2
176,奥普酒店(重庆蔡家轻轨站店),Aopu Hotel,免费停车,29.73494,106.481423,261,2
177,ARISTON·艾瑞斯顿酒店(重庆解放碑洪崖洞店),ARISTON AIRESTON HOTEL (Chongqing Jiefangbei Hongyadong Branch),家庭房,29.554624,106.578081,327,1
178,ISBELLO丽鑫·地标高空酒店(解放碑店),ISBELLO Lixin Landmark High Altitude Hotel (Jiefangbei Branch),管家服务,29.557975,106.57832,258,1
179,重庆仙女山喜宿民宿,Xisu B&B,免费停车,29.415945,107.765318,348,2
180,重庆BERKIN佰利金高空酒店,CHONG QING BERKIN HOTEL,影音房,29.563382,106.586252,479,1
181,丽呈東谷酒店(重庆观音桥店),Rezen Dong Hotel (Chongqing Guanyinqiao),免费停车,29.567425,106.536312,334,1
182,重庆南山别院民宿(南山火锅一条街店),Nanshan Bieyuan Guesthouse,免费停车,29.499548,106.59022,328,1
183,阁外·城隐民宿,Chengyin Homestay,免费停车,29.273952,106.977026,303,2
184,金佛山银杏皇后酒店,Ginkgo Queen Hotel,免费停车,29.065212,107.202256,328,2
185,重庆花田小院,Hua Tian Xiao Yuan,免费停车,29.270005,106.976337,328,1
186,丽呈君顿酒店(重庆中央公园店),Licheng Jundun Hotel (Chongqing Central Park),情侣房,29.725677,106.579323,440,1
187,重庆桷度南山民宿,Juedu Nanshan Hostel,免费停车,29.558868,106.639139,405,1
188,重庆野墅民宿,Yeshu Homestay,民宿,29.217937,106.964051,321,1
189,拾壹居亲子民宿(重庆金刀峡偏岩古镇店),Shiyiju Parent-child Homestay,儿童乐园,30.002862,106.655107,419,1
190,丽呈君顿酒店(重庆新牌坊店),Rezen Kingtown Hotel (Chongqing Xinpaifang),免费停车,29.600985,106.521804,259,1
191,重庆星屿星院帐篷民宿,Chongqing Xingyu Xingyuan Tent Homestay please,免费停车,28.842035,106.903869,388,1
192,杉屿树森林营地(山王坪店),Shanyushu Forest Camp (Shanwangping Branch),停车场,29.099368,107.331205,327,2
193,重庆木原町酒店,Muyuanding Hotel,免费停车,29.527321,106.546048,291,1
194,美豪丽致酒店(重庆渝中店),Mehood Lestie Hotel (Zhongqing Yuzhong),免费停车,29.556079,106.550203,290,1
195,悠舍S·Loft酒店(重庆观音桥步行街店),Youshe S Loft Hotel (Chongqing Guanyinqiao Pedestrian Street),管家服务,29.582309,106.527391,224,1
196,麗枫酒店(大足石刻昌州古城店),Lavande Hotel (Dazu stone Carving changzhou gucheng),免费停车,29.68445,105.733627,245,1
197,麗枫酒店(重庆龙头寺火车北站店),Lavande Hotel (Chongqing Longtousi North Railway Station),管家服务,29.613612,106.547709,293,1
198,重庆尚悦·明清客栈,Landscape  Shangyue Dynasty Inn,管家服务,29.55732,106.58656,348,2
199,重庆观音桥亚朵酒店,Atour Hotel (Chongqing Guanyinqiao),免费停车,29.589229,106.533168,324,2
200,来住酒店(重庆解放碑店),LAIZHU hotel (Chongqing Jiefangbei Branch),管家服务,29.565034,106.556945,147,1
201,重庆鄉根乡舍(金刀峡度假区店),Chongqing Xianggen Cottage (Jindaoxia Resort),免费停车,29.988755,106.578367,372,2
202,重庆鸭血粉丝窝·倾城之巅民宿,Duck Blood and Vermicelli Qingcheng Zhidian Guesthouse,民宿,29.54698,106.473244,290,2
203,重庆魔名奇妙花园民宿,Moming Qimiao Garden Guesthouse,山景房,29.569072,106.659347,378,2
204,重庆花啦·十二舍Loft高空美宿公寓,flower`Twelve houses loft,充电桩,29.579487,106.541655,370,1
205,仙女山·归原·好院子民宿,Homecoming·Good Yard Guesthouse,民宿,29.372119,107.734431,492,1
206,THE HUMBLE 厚居高空江景酒店 (重庆解放碑洪崖洞店),THE HUMBLE  River View Hotel (Chongqing Jiefangbei Hongyadong),山景房,29.556026,106.57641,192,1
207,花筑·星悦荟江景酒店(重庆观音桥步行街店),Floral Hotel·Star hotel (Chongqing Guanyinqiao pedestrian street),充电桩,29.570006,106.547859,208,1
208,玺豪酒店(重庆悦来会展中心),Xihao Hotel,免费停车,29.722327,106.541526,269,1
209,希岸酒店(重庆解放碑步行街中心店),Xana Hotelle (Jiefangbei Pedestrian Street Zhongxin),智能客控,29.556245,106.576553,210,1
210,重庆亚善高空江景酒店(解放碑来福士广场店),Chongqing Ashan River View Hotel (Jiefangbei Raffles Square Branch),江河景房,29.563166,106.585846,202,1
211,格雷斯精选酒店(重庆江北国际机场中心店),Grace Select Hotel (Zhongqing Jiangbei International Airport Center),管家服务,29.687683,106.601529,247,1
212,丽呈安寐酒店(重庆观音桥地铁站店),Licheng An Hotel (ChongQing Guanyinqiao Subway Station),免费停车,29.573876,106.535307,238,1
213,维也纳国际酒店(重庆解放碑十八梯店),Vienna International Hotel,江河景房,29.54933,106.57164,210,1
214,桔子酒店(重庆解放碑步行街店),Orange Hotel (Chongqing Jiefangbei Pedestrian Street),管家服务,29.558462,106.582343,224,1
215,Asiam亚美国际酒店(重庆观音桥步行街时代中心店),Asiam International Hotel (Chongqing Guanyinqiao Pedestrian Street Times Center Branch),免费停车,29.575854,106.535691,258,1
216,九龙国际酒店(开州区政府店),Jiulong Hotel (Kaizhou District Government),棋牌室,31.163129,108.394465,222,1
217,重庆科苑戴斯酒店,Days Hotel By Wyndham Chongqing Keyuan,免费停车,29.568512,106.462503,504,1
218,维也纳酒店(重庆袁家岗地铁站店),Vienna Hotel (Chongqing Yuanjiagang Metro Station),影音房,29.528639,106.513202,258,1
219,维也纳国际酒店(重庆涪陵宝龙广场店),Vienna International Hotel (Chongqing Fuling Baolong Plaza Branch),家庭房,29.707922,107.365639,294,1
220,重庆璞悦酒店(解放碑洪崖洞店),Chongqing Yue Hotel(Jiefangbei Hongyadong Store),家庭房,29.556026,106.57641,236,1
221,炫栖民宿(重庆解放碑洪崖洞店),Xuanqi Homestay (Chongqing Jiefangbei Hongyadong Branch),窗外好景,29.553926,106.573652,389,1
222,全季酒店(重庆观音桥步行街店),Ji Hotel (Chongqing Guanyinqiao Pedestrian Street),免费停车,29.580201,106.529991,280,1
223,溪谷酒店(长寿清明上河坊店),Valley Hotel,家庭房,29.854476,107.09845,271,2
224,蔚徕酒店(重庆观音桥北城天街店),Vyluk Hotel (Chongqing Guanyinqiao Beicheng Tianjie Store),健身室,29.580052,106.540734,229,1
225,重庆丽森酒店(两江幸福广场店),Beautisson Hotel (Liangjiang Love Square store),免费停车,29.617689,106.502928,566,1
226,重庆冉家坝丽呈君顿酒店,Rezen Kingtown Hotel (Chongqing Ranjiaba),免费停车,29.590345,106.499625,368,1
227,重庆INDITION英迪逊酒店(江北嘴金融城店),CHONGQING INDITION HOTEL(JIANG BEI),窗外好景,29.570231,106.565766,475,1
228,泊联汇环球云端酒店(重庆大渡口步行街店),Elite Polink Global Hotel (Chongqing Dadukou District),免费停车,29.472094,106.478698,270,1
229,麗枫酒店(重庆江北国际机场T3航站楼店),Lavande Hotel (Chongqing Jiangbei International Airport T3),免费停车,29.664398,106.615536,221,1
230,重庆璞悦酒店(江北机场店),Chongqing PuYue Hotel (Jiangbei Airport),免费停车,29.727119,106.62996,268,2
231,罗斯弗服务公寓(重庆观音桥步行街九街店),Roosevelt Service Apartment (Chongqing Guanyinqiao Pedestrian Street 9th Street Branch),管家服务,29.575814,106.535785,228,1
232,重庆李子坝两路口地铁站亚朵酒店,Atour Hotel(Chongqing Liziba Lianglukou Metro Station),免费停车,29.557098,106.548364,332,1
233,重庆闹市小窝民宿酒店,Chongqing Downtown Xiaowo Homestay,24小时前台,29.568412,106.444792,361,2
234,黑山谷度假酒店,Black Valley Resort,免费停车,28.92615,107.01181,568,2
235,悠舍S·江景酒店(重庆江北嘴鎏嘉码头店),Youshe S River View Hotel (Chongqing Jiangbeizui Liujia Wharf),管家服务,29.570188,106.56253,224,1
236,天晴高空江景酒店(重庆解放碑店),Tianqing River View Hotel (Chongqing Jiefangbei),江河景房,29.557489,106.582351,237,2
237,181地标壹号酒店(解放碑店),181 Landmark No.1 Hotel (Jiefangbei Branch),动人夜景,29.555089,106.577319,284,1
238,松隅酒店(江与城大竹林店),Sunyu  Hotel,充电桩,29.619815,106.476255,246,1
239,悠舍·智能酒店(重庆大学城微电园店),Youshe Smart Hotel (Chongqing University Town Microelectronics Park),家庭房,29.61191,106.360767,158,1
240,重庆泊逸云栖酒店(万州万达广场店),chongqing Boyi Yunqi Hotel (wanzhou Wanda Plaza),免费停车,30.817209,108.361291,188,1
241,H酒店(重庆爱琴海购物广场店),H Hotel (Chongqing Aegean Sea Shopping Plaza),管家服务,29.64345,106.545022,239,1
242,爱电竞酒店(重庆冉家坝龙湖MOCO店),Love E-sports Hotel (Chongqing Ranjiaba Longhu MOCO),电竞房,29.601772,106.498178,296,2
243,重庆解放碑洪崖洞恩季M酒店,ACE High-altitude Designer Homestay (Jiefangbei Haochi Street Branch),影音房,29.555642,106.577966,158,1
244,重庆成都信息工程大学培训中心酒店(重庆江北机场店),Chengdu University of Information Technology Training Center,健身室,29.739779,106.6324,168,2
245,慧苑酒店(重庆沙坪坝高铁站金沙天街店),Huiyuan Hotel (Chongqing Shapingba High Speed Railway Station Jinsha Tianjie Branch),窗外好景,29.556907,106.45884,264,2
246,重庆佳源星光酒店(永川高铁站奥特莱斯店),Jiayuan Starlight Hotel,免费停车,29.364056,105.942784,175,2
247,重庆钓鱼城合院民宿,Chongqing Fishing City Heyuan Homestay,免费停车,30.002402,106.30655,236,2
248,美朵怡然酒店(袁家岗轻轨站奥体店),Meiduo Yiran Hotel (Yuanjiagang Light Rail Station Olympic Sports Store),山景房,29.520871,106.505609,180,2
249,喜番世嘉高空江景酒店(北滨一路华新街地铁站店),Xifan Sega Sky Riverview Hotel (North Bin 1st Road),影音房,29.564234,106.538855,195,1
250,重庆庆泰金贸酒店,Qingtai Hotel,免费停车,29.509234,106.458534,186,2
251,两江盛锦酒店(重庆园博园店),Liangjiang Shengjin Hotel (Chongqing Garden Expo Park),充电桩,29.675728,106.565523,227,1
252,开州学苑公寓酒店,COMMON  IVY HOTEL,酒店公寓,31.160333,108.370224,146,2
253,宽融套房酒店(重庆两江爱情海购物公园店),Kuanrong Suites Hotel (Liangjiang love sea shopping park),管家服务,29.639578,106.54474,276,1
254,弈鸣居公寓(重庆洪崖洞店),Yimingju Hotel,停车场,29.559747,106.5797,92,2
255,Mallorca高空酒店(重庆解放碑洪崖洞店),Mallorca Sky Hotel (Chongqing Jiefangbei Hongyadong Branch),江河景房,29.549138,106.568993,160,1
256,云舒酒店(重庆天地店),Yunshu Hotel (Chongqing Tiandi Branch),家庭房,29.547735,106.517242,168,1
257,伊布酒店(重庆解放碑洪崖洞店),Ibu Hotel (Chongqing Jiefangbei Hongyadong Branch),家庭房,29.556893,106.573159,97,1
258,建国铂萃酒店(重庆杨家坪步行街店),JIANGUO BOUTIQUE HOTEL,健身室,29.507432,106.515804,291,1
259,丽朵酒店(重庆解放碑朝天门店),Lido Hotel (Chongqing Hongyadong store),江河景房,29.552192,106.580892,97,1
260,乌米酒店(重庆企业天地店),UMI HOTEL,影音房,29.547768,106.517224,150,2
261,云幕国际酒店(重庆解放碑步行街店),Cloud Screen International Hotel,充电桩,29.555937,106.567254,201,1
262,重庆格特酒店公寓(解放碑日月光店),Chongqing Gete Huami Miguel Hotel,酒店公寓,29.554276,106.572682,119,1
263,花屿里酒店(重庆陆海国际企业天地店),FLOWER ISLAND HOTEL,江河景房,29.547735,106.517242,242,1
264,维森酒店(重庆观音桥九街店),Wesson Hotel (Chongqing Guanyinqiao 9th Street),影音房,29.579478,106.540768,182,1
265,港城花园酒店(重庆沙坪坝三峡广场店),Gangcheng Garden Hotel,家庭房,29.549249,106.459429,135,1
266,重庆RIGEL深空酒店,Rigel Hotel,免费停车,29.563477,106.585946,504,1
267,丽怡酒店(重庆光环购物公园重光地铁站店),"Country Inn & Suites by Radisson,Chongqing Guanghuan Shopping Park Hotel",家庭房,29.651437,106.525816,305,2
268,丽晶公寓(重庆沙坪坝高铁站金沙天街店),Regent Apartment,管家服务,29.554501,106.463225,163,1
269,重庆万州万达广场美仑酒店,"Meilun Hotel, Wanda Plaza, Chongqing",免费停车,30.807487,108.37963,275,1
270,重庆贝壳酒店(解放碑洪崖洞店),Shell Hotel Chongqing,拍照出片,29.559244,106.576995,96,1
271,鹿也山居民宿(仙女山店),Luyeshanju  B&B (Fairy Mountain Branch),免费停车,29.415893,107.771455,178,2
272,重庆栖林·楠苑酒店(黑山谷景区店),Chongqing Qilin·Nanyuan Hotel,免费停车,28.921095,107.00619,772,1
273,桔子酒店(重庆解放碑洪崖洞江景店),Orange Hotel (Chongqing Jiefangbei Hongyadong Riverview),江河景房,29.561244,106.573628,255,2
274,有涧酒店(重庆爱琴海购物公园店),Youyi Homestay (Chongqing Aegean Shopping Park),停车场,29.639608,106.544977,184,1
275,斯普兰精品酒店(江北国际机场店),Speland Boutique Hotel (Jiangbei International Airport Branch),24小时前台,29.719456,106.632923,74,1
276,重庆解放碑中心美居酒店,MERCURE CHONGQING JIEFANGBEI HONGYA CAVE,免费停车,29.560382,106.579912,359,1
277,蔚徕酒店(重庆观音桥店),Vluky Hotel (Chongqing Guanyinqiao),健身室,29.573392,106.541404,221,1
278,重庆典雅戴斯酒店(九公里轻轨站店),Days Inn Chongqing Festival (Nine Kilometers Light Rail Station),免费停车,29.461605,106.560949,238,1
279,雪洪酒店(仙女山游客中心店),Xuehong Hotel (Fairy Mountain Visitor Center),免费停车,29.422461,107.770461,107,2
280,重庆界外美术馆民宿,Chongqing jiewai Art Museum Homestay,免费停车,29.539702,106.259394,427,1
281,柏特酒店(鱼嘴鱼复工业园区店),Park Hotel (Yuzuiyu Fu Industrial Park),免费停车,29.630136,106.754193,187,2
282,沐林栖酒店(重庆两江新区爱琴海购物公园店),Mulinqi Hotel (Chongqing Liangjiang New Area Aegean Shopping Park),充电桩,29.639578,106.54474,165,1
283,云幕国际酒店(重庆北滨路鎏嘉码头店),"Yunmu International Hotel (Jiujia Wharf, Beibin Road, Chongqing)",酒店公寓,29.570561,106.558842,217,1
284,维也纳酒店(重庆江津万达广场圣泉寺地铁站店),Vienna Hotel (Chongqing Jiangjin WandaPlaza Shengquan TempleMetro Station Branch),免费停车,29.306124,106.258264,208,2
285,如家精选酒店(重庆牛角沱轻轨站李子坝店),Home Inn (Chongqing Niujiaoyu Light Rail Station Liziba Branch),空调,29.557856,106.542163,238,1
286,重庆国航饭店(观音桥店),Chongqing Air China Hotel (Guanyin Bridge Branch),免费停车,29.584683,106.526997,264,1
287,重庆NASITING·纳斯汀酒店(解放碑洪崖洞店),Chongqing NASITING Hotel (Monument to the people's Liberation Hongyadong Store),家庭房,29.559158,106.579154,289,1
288,芭丽酒店(重庆冉家坝大龙山轻轨站店),Chongqing Bali Hotel,棋牌室,29.588503,106.498069,266,1
289,维也纳酒店(重庆上清寺牛角沱轻轨站店),Vienna Hotel (Chongqing Shangqing Temple Niujiaotuo Light Rail Station),家庭房,29.560169,106.546108,277,1
290,重庆仙女山山行居民宿,Chongqing Fairy Mountain Homestay,免费停车,29.41518,107.764209,295,2
291,珮馥居客栈(重庆南滨路店),Peifuju,江河景房,29.540508,106.572472,191,1
292,宜必思酒店(重庆江北国际机场店),Ibis Hotel (Jiangbei International Airport),管家服务,29.71348,106.627641,168,1
293,北城酒店(重庆观音桥步行街店),Beicheng Hotel (Chongqing Guanyinqiao Pedestrian Street),情侣房,29.576475,106.531357,213,1
294,名人酒店(华厦城店),Celebrity Hotel (Huaxiacheng Branch),免费停车,30.193893,105.83363,192,1
295,麗枫酒店(重庆杨家坪步行街地铁站店),Lavande Hotel (Chongqing Yangjiaping Pedestrian Street Metro Station),洗衣房,29.509498,106.515427,182,2
296,重庆南川新华酒店,Xinhua Hotel Nanchuan,棋牌室,29.157059,107.100034,186,2
297,维也纳酒店(重庆西站西南医院店),Vienna Hotel(Chongqing West Railway Station Southwest Hospital Branch),免费停车,29.526092,106.451347,212,1
298,里舍民宿(重庆解放碑较场口店),Lisir Apartmemt,江河景房,29.558578,106.577127,97,2
299,喜客精品酒店(重庆江北工商大学店),Seeker Hotel (Chongqing Technology and Business University),免费停车,29.558852,106.529005,223,2
300,维也纳酒店(重庆江津鼎山公园店),Vienna Hotel (Chongqing Jiangjin Dingshan Park),免费停车,29.262396,106.283619,210,2
301,万州太白宾馆,Taibai Hotel,棋牌室,30.813325,108.372172,226,1
302,重庆尚高酒店,Shanggao Hotel,免费停车,30.190248,105.841388,160,1
303,君琦酒店,Junqi Hotel,免费停车,29.425891,107.769172,113,2
304,四季有你假日酒店(长寿古镇长寿北站店),Four Seasons Youyou Holiday Hotel(Changshou Ancient Town Changshou North Station Store),家庭房,29.855009,107.067394,155,1
305,重庆诺娅方州酒店,Chongqing Noia Fangzhou Hotel,管家服务,29.031035,106.654156,115,2
306,恋磁逸客酒店(重庆磁器口地铁站店),Lianci Yike Hotel (Chongqing Ciqikou Subway Station),山景房,29.577423,106.44799,120,1
307,重庆北站伊可莎大酒店,Excel Hotel,免费停车,29.607063,106.544171,297,1
308,IU酒店(重庆大渡口步行街新山村地铁站店),IU Hotel (Chongqing Dadukou Pedestrian Street Xinshan Village Subway Station),棋牌室,29.47266,106.476949,166,1
309,山栖厚舍高空江景酒店(重庆北滨路鎏嘉码头店),Shanqi Houshe High-altitude Riverview Hotel (Chongqing Beibin Road Yujia Wharf),江河景房,29.570328,106.56,245,1
310,漫州国际酒店(重庆万盛汽车客运站宏恩财富广场店),Manzhou International Hotel (Wansheng Yaocheng),免费停车,28.947449,106.92589,111,2
311,IU酒店(重庆西站新桥医院店),IU Hotel (West Railway Station Xinqiao Hospital),窗外好景,29.522869,106.449743,188,1
312,重庆福瑞猫Free mall酒店(聚信建材城花卉园地铁站店),Chongqing Furui Cat Free mall Hotel,充电桩,29.580777,106.507321,186,1
313,星程酒店(重庆观音桥步行街店),Starway Hotel (Zhongqing Guanyinqiao Pedestrian Street),商务中心,29.58777,106.524704,211,2
314,麗枫酒店(重庆解放碑步行街店),Lavande Hotel (Chongqing Jiefangbei Pedestrian Street),管家服务,29.553363,106.578127,174,1
315,重庆梦雪居酒店(重庆邮电大学店),Chongqing Mengxueju Hotel,24小时前台,29.537292,106.604322,375,1
316,IU酒店(重庆万州万达广场店),IU Hotel (Chongqing Wanzhou Gaosuntang Plaza),山景房,30.811203,108.378098,138,1
317,沃林酒店(重庆悦来国博会展中心店),Wolin Hotel (In Chongqing Yuelai National Expo Convention and Exhibition Center),24小时前台,29.709257,106.544715,215,1
318,free·仰望高空酒店(重庆大坪时代天街店),Xuyu Boutique Hotel (Chongqing Daping Times Paradise Walk),茶室,29.533253,106.512363,121,1
319,君顿酒店(开州汉丰湖店),Hanting Hotel (Kaizhou Hanfeng Lake),家庭房,31.17756,108.41001,165,1
320,地中海酒店(重庆铜梁步行街万达广场店),Mediterranean Hotel,免费停车,29.836391,106.053155,117,1
321,诗贝儿酒店(重庆电子科技职业大学店),Spell hotel,充电桩,29.614,106.322051,151,1
322,宜必思酒店(重庆解放碑洪崖洞店),Ibis Hotel (Chongqing Jiefangbei Hongyadong),管家服务,29.558775,106.579548,172,2
323,香奈酒店(重庆北站郑家院子地铁站店),Chanel Hotel (Chongqing North Railway Station Shin Kong Plaza),停车场,29.599546,106.527165,192,1
324,雲山民宿(重庆解放碑洪崖洞店),Lushan Homestay (Chongqing Jiefangbei Hongyadong Branch),家庭房,29.55208,106.580391,117,1
325,暴走熊电竞酒店(爱琴海光环购物公园店),Baozouxiong E-sports Hotel,茶室,29.639473,106.545685,95,1
326,Ufia Hotel优菲娅解放碑设计师酒店,Ufia Jiefangbei Designer Hotel,设计师酒店,29.556026,106.57641,256,1
327,重庆苏比克酒店(万州万达广场店),Subike Hotel,免费停车,30.813269,108.381596,146,2
328,重庆瑞事成酒店,Chongqing Ruishicheng Hotel,管家服务,29.55034,106.439725,168,2
329,富屿花园酒店(西南大学状元碑地铁站店),Fuyu Garden Hotel (Southwest University Zhuangyuanbei Subway Station),空调,29.802809,106.399743,109,2
330,重庆天菲艺术酒店(奥体中心袁家岗地铁站店),Chongqing Tianfei Art Hotel (Olympic Sports Center Yuanjiagang Subway Station),停车场,29.523695,106.512528,116,1
331,栖悦·江景精品公寓(重庆南滨路烟雨公园店),Qiyue River-view Boutique Apartment (Chongqing Nanbin Road Yanyu Park),酒店公寓,29.543225,106.586111,96,2
332,榛果酒店(石桥铺仁悦天地店),Luguo Hotel (Shiqiaopu Renyue World Shop),24小时前台,29.527012,106.48249,115,1
333,清华綦瑞酒店(重庆南滨路店),Qinghua Qirui Hotel,棋牌室,29.574981,106.601524,161,1
334,丽程酒店(交通大学店),Licheng Hotel (Jiaotong University),免费停车,29.4146,106.304916,81,1
335,希曼影院式酒店(重庆悦来国博中心中央公园店),Ximan Cinema Hotel (Chongqing Yuelai Convention and Exhibition Central Park),影音房,29.722059,106.572947,131,1
336,森屿酒店(大竹林江与城店),Senyu Hotel (Dazhulin River and City),家庭房,29.620513,106.476098,178,1
337,洛可艺术酒店(重庆西站西南医院店),Luoke Hotel (Chongqing Shapingba),棋牌室,29.529681,106.453409,120,2
338,沁悦精品酒店(合川财富广场店),Hunyue Boutique Hotel (Hechuan Fortune Plaza Branch),免费停车,29.997571,106.260983,113,1
339,Flcc 丽顿·春季酒店(泽胜中央广场店),Flcc Spring Hotel (Zesheng Central Plaza),24小时前台,29.700397,107.398658,148,1
340,璞舍公寓(重庆冉家坝龙湖源著店),Yushe Apartment (Chongqing Ranjiaba Longhu Yuanzhu Branch),酒店公寓,29.603089,106.483408,141,1
341,华爵酒店(重庆同景国际店),Huajue Hotel,24小时前台,29.499169,106.654527,69,1
342,汉庭酒店(重庆荣昌南门桥步行街店),Hanting Hotel (Rongchang Pedestrain Street),免费停车,29.400866,105.591457,119,1
343,汀兰酒店(重庆西站华龙地铁站店),Ting Lan Hotel,24小时前台,29.493545,106.454161,103,1
344,重庆源旭酒店(江北机场店),"Yuanxuan Hotel, Chongqing",24小时前台,29.726315,106.629904,74,1
345,重庆雅巢连锁时尚太空舱青年旅社,Yachao Capsule Apartment,情侣房,29.559171,106.580084,31,2
346,凡辰江景酒店,shiguang hotel,民宿,29.55616,106.565573,122,1
347,穗假日酒店,Sui Holiday lnn,家庭房,29.599231,106.313448,149,1
348,观江心语酒店(重庆解放碑洪崖洞店),Guanjiang Xinyu Hotel (Chongqing Jiefangbei Hongyadong Branch),家庭房,29.561782,106.568648,142,1
349,赛菲特酒店(重庆火车北站店),Saifert Hotel (Chongqing North Railway Station),24小时前台,29.603901,106.549755,105,1
350,重庆仁安山茶酒店,REN'AN CAMELLIA HOTEL,免费停车,29.599454,106.559572,564,1
351,豪庭精品酒店(重庆解放碑洪崖洞店),Haoting boutique hotel (chongqing jiefangbei hotel),24小时前台,29.558583,106.573659,81,1
352,重庆欧润酒店(江北机场店),Chongqing Ou run hotel,棋牌室,29.702331,106.623566,94,2
353,99优选酒店(重庆龙头寺火车北站店),99youxuan,山景房,29.60398,106.555289,77,1
354,21ºC伴.高空观景酒店(重庆解放碑步行街店),21oC Ban. High-altitude View Hotel (Chongqing Jiefangbei Pedestrian Street),穿梭机场班车,29.558577,106.577405,176,1
355,万澳致选酒店(重庆解放碑步行街店),Wan'ao Zhixuan Hotel (Chongqing Monument to the people's Liberation Pedestrian Street Store),家庭房,29.559467,106.575611,162,1
356,重庆38.6℃主题影院酒店(杨家坪步行街店),38. 6℃ Cinema Thematic Hotel,酒店公寓,29.51143,106.517461,144,1
357,都市118连锁酒店(重庆儿童医院本部店),City 118 Chain Hotel (Chongqing Children's Hospital),24小时前台,29.553928,106.552978,85,1
358,哈啰轻酒店(重庆微电园地铁站店),Hello Hotel (Chongqing Weidian Metro Station Store),洗衣机,29.61306,106.363037,78,2
359,重庆今与今至酒店,JinyuJinzhi Hotel,24小时前台,29.602926,106.553715,79,1
360,新华酒店(重庆解放碑店),Xin Hua Hotel (Chongqing Jiefangbei),免费停车,29.556944,106.575825,239,1
361,7天优品酒店(重庆南川政府广场店),qi tan you ping jiu dian chong qing nan chuan zheng fu guang chang dian,免费停车,29.16715,107.086234,113,2
362,重庆天赐温泉度假酒店,Tianci Hot Spring Resort,桑拿,29.512364,106.369488,162,2
363,柏曼酒店(重庆渝中大礼堂店),Berman Hotel (Chongqing Yuzhong Da Auditorium),家庭房,29.558778,106.551999,187,1
364,维也纳3好酒店(重庆江北机场国际博览中心店),Vienna 3 Best Hotel (Chongqing Jiangbei International Airport ),棋牌室,29.718685,106.601704,185,1
365,重庆融汇泉·别院,Ronghui Hot Spring Resort,免费停车,29.541731,106.440782,1999,2
366,7天酒店(重庆江北国际机场店),7 Days Inn (Chongqing Jiangbei International Airport),24小时前台,29.754093,106.633537,95,2
367,汉庭酒店(重庆海尔工业园店),"Unit 2, Building 1, No. 53 Gangcheng West Road, Jiangbei District, Chongqing",停车场,29.622867,106.645143,210,2
368,重庆柒悦度假酒店,Qiyue Resort Hotel,免费停车,29.42838,107.771257,309,1
369,伊尔顿酒店(重庆能源职业学院店),Elton Hotel Chongqing Energy Vocational College Branch,影音房,29.425725,106.303522,113,1
370,迷山上·SOMMET度假酒店(解放碑洪崖洞店),MISS SOMMET HOTEL,免费停车,29.556485,106.569096,546,1
371,重庆艺术云界酒店(解放碑洪崖洞店),Chongqing Art Yunshang Hotel (Jiefangbei Hongyadong Shop),江河景房,29.55814,106.576786,117,1
372,7天优品Premium酒店(重庆上清寺牛角沱地铁站店),7Days Premium Chongqing Shangqing Temple Niujiaotuo Light Rail Station Branch,智能马桶,29.558569,106.547863,124,1
